{"stationBeanList": [{"city": "", "latitude": 40.76727216, "stAddress1": "W 52 St & 11 Ave", "availableDocks": 32, "testStation": false, "longitude": -73.99392888, "location": "", "lastCommunicationTime": "2015-06-08 04:23:12 PM", "id": 72, "altitude": "", "stAddress2": "", "postalCode": "", "stationName": "W 52 St & 11 Ave", "totalDocks": 39, "statusValue": "In Service", "availableBikes": 7, "landMark": "", "statusKey": 1}, {"city": "", "latitude": 40.71911552, "stAddress1": "Franklin St & W Broadway", "availableDocks": 7, "testStation": false, "longitude": -74.00666661, "location": "", "lastCommunicationTime": "2015-06-08 04:25:53 PM", "id": 79, "altitude": "", "stAddress2": "", "postalCode": "", "stationName": "Franklin St & W Broadway", "totalDocks": 33, "statusValue": "In Service", "availableBikes": 22, "landMark": "", "statusKey": 1}, {"city": "", "latitude": 40.71117416, "stAddress1": "St James Pl & Pearl St", "availableDocks": 27, "testStation": false, "longitude": -74.00016545, "location": "", "lastCommunicationTime": "2015-06-08 04:24:26 PM", "id": 82, "altitude": "", "stAddress2": "", "postalCode": "", "stationName": "St James Pl & Pearl St", "totalDocks": 27, "statusValue": "In Service", "availableBikes": 0, "landMark": "", "statusKey": 1}, {"city": "", "latitude": 40.68382604, "stAddress1": "Atlantic Ave & Fort Greene Pl", "availableDocks": 35, "testStation": false, "longitude": -73.97632328, "location": "", "lastCommunicationTime": "2015-06-08 04:23:11 PM", "id": 83, "altitude": "", "stAddress2": "", "postalCode": "", "stationName": "Atlantic Ave & Fort Greene Pl", "totalDocks": 62, "statusValue": "In Service", "availableBikes": 25, "landMark": "", "statusKey": 1}, {"city": "", "latitude": 40.74177603, "stAddress1": "W 17 St & 8 Ave", "availableDocks": 37, "testStation": false, "longitude": -74.00149746, "location": "", "lastCommunicationTime": "2015-06-08 04:26:16 PM", "id": 116, "altitude": "", "stAddress2": "", "postalCode": "", "stationName": "W 17 St & 8 Ave", "totalDocks": 39, "statusValue": "In Service", "availableBikes": 1, "landMark": "", "statusKey": 1}, {"city": "", "latitude": 40.69608941, "stAddress1": "Park Ave & St Edwards St", "availableDocks": 12, "testStation": false, "longitude": -73.97803415, "location": "", "lastCommunicationTime": "2015-06-08 04:23:49 PM", "id": 119, "altitude": "", "stAddress2": "", "postalCode": "", "stationName": "Park Ave & St Edwards St", "totalDocks": 19, "statusValue": "In Service", "availableBikes": 6, "landMark": "", "statusKey": 1}, {"city": "", "latitude": 40.68676793, "stAddress1": "Lexington Ave & Classon Ave", "availableDocks": 14, "testStation": false, "longitude": -73.95928168, "location": "", "lastCommunicationTime": "2015-06-08 04:26:05 PM", "id": 120, "altitude": "", "stAddress2": "", "postalCode": "", "stationName": "Lexington Ave & Classon Ave", "totalDocks": 19, "statusValue": "In Service", "availableBikes": 5, "landMark": "", "statusKey": 1}, {"city": "", "latitude": 40.73172428, "stAddress1": "Barrow St & Hudson St", "availableDocks": 25, "testStation": false, "longitude": -74.00674436, "location": "", "lastCommunicationTime": "2015-06-08 04:26:03 PM", "id": 127, "altitude": "", "stAddress2": "", "postalCode": "", "stationName": "Barrow St & Hudson St", "totalDocks": 31, "statusValue": "In Service", "availableBikes": 6, "landMark": "", "statusKey": 1}, {"city": "", "latitude": 40.72710258, "stAddress1": "MacDougal St & Prince St", "availableDocks": 6, "testStation": false, "longitude": -74.00297088, "location": "", "lastCommunicationTime": "2015-06-08 04:22:55 PM", "id": 128, "altitude": "", "stAddress2": "", "postalCode": "", "stationName": "MacDougal St & Prince St", "totalDocks": 30, "statusValue": "In Service", "availableBikes": 24, "landMark": "", "statusKey": 1}, {"city": "", "latitude": 40.761628, "stAddress1": "E 56 St & Madison Ave", "availableDocks": 7, "testStation": false, "longitude": -73.972924, "location": "", "lastCommunicationTime": "2015-06-08 04:25:37 PM", "id": 137, "altitude": "", "stAddress2": "", "postalCode": "", "stationName": "E 56 St & Madison Ave", "totalDocks": 46, "statusValue": "In Service", "availableBikes": 35, "landMark": "", "statusKey": 1}, {"city": "", "latitude": 40.69239502, "stAddress1": "Clinton St & Joralemon St", "availableDocks": 19, "testStation": false, "longitude": -73.99337909, "location": "", "lastCommunicationTime": "2015-06-08 04:23:18 PM", "id": 143, "altitude": "", "stAddress2": "", "postalCode": "", "stationName": "Clinton St & Joralemon St", "totalDocks": 24, "statusValue": "In Service", "availableBikes": 4, "landMark": "", "statusKey": 1}, {"city": "", "latitude": 40.69839895, "stAddress1": "Nassau St & Navy St", "availableDocks": 13, "testStation": false, "longitude": -73.98068914, "location": "", "lastCommunicationTime": "2015-06-08 04:23:19 PM", "id": 144, "altitude": "", "stAddress2": "", "postalCode": "", "stationName": "Nassau St & Navy St", "totalDocks": 19, "statusValue": "In Service", "availableBikes": 6, "landMark": "", "statusKey": 1}, {"city": "", "latitude": 40.71625008, "stAddress1": "Hudson St & Reade St", "availableDocks": 28, "testStation": false, "longitude": -74.0091059, "location": "", "lastCommunicationTime": "2015-06-08 04:25:17 PM", "id": 146, "altitude": "", "stAddress2": "", "postalCode": "", "stationName": "Hudson St & Reade St", "totalDocks": 39, "statusValue": "In Service", "availableBikes": 10, "landMark": "", "statusKey": 1}, {"city": "", "latitude": 40.71542197, "stAddress1": "Greenwich St & Warren St", "availableDocks": 3, "testStation": false, "longitude": -74.01121978, "location": "", "lastCommunicationTime": "2015-06-08 04:25:46 PM", "id": 147, "altitude": "", "stAddress2": "", "postalCode": "", "stationName": "Greenwich St & Warren St", "totalDocks": 33, "statusValue": "In Service", "availableBikes": 27, "landMark": "", "statusKey": 1}, {"city": "", "latitude": 40.7208736, "stAddress1": "E 2 St & Avenue C", "availableDocks": 27, "testStation": false, "longitude": -73.98085795, "location": "", "lastCommunicationTime": "2015-06-08 04:26:23 PM", "id": 150, "altitude": "", "stAddress2": "", "postalCode": "", "stationName": "E 2 St & Avenue C", "totalDocks": 31, "statusValue": "In Service", "availableBikes": 2, "landMark": "", "statusKey": 1}, {"city": "", "latitude": 40.7218158, "stAddress1": "Cleveland Pl & Spring St", "availableDocks": 17, "testStation": false, "longitude": -73.99720307, "location": "", "lastCommunicationTime": "2015-06-08 04:24:45 PM", "id": 151, "altitude": "", "stAddress2": "", "postalCode": "", "stationName": "Cleveland Pl & Spring St", "totalDocks": 33, "statusValue": "In Service", "availableBikes": 9, "landMark": "", "statusKey": 1}, {"city": "", "latitude": 40.71473993, "stAddress1": "Warren St & Church St", "availableDocks": 1, "testStation": false, "longitude": -74.00910627, "location": "", "lastCommunicationTime": "2015-06-08 04:24:12 PM", "id": 152, "altitude": "", "stAddress2": "", "postalCode": "", "stationName": "Warren St & Church St", "totalDocks": 29, "statusValue": "In Service", "availableBikes": 27, "landMark": "", "statusKey": 1}, {"city": "", "latitude": 40.752062307, "stAddress1": "E 40 St & 5 Ave", "availableDocks": 45, "testStation": false, "longitude": -73.9816324043, "location": "", "lastCommunicationTime": "2015-06-08 04:25:50 PM", "id": 153, "altitude": "", "stAddress2": "", "postalCode": "", "stationName": "E 40 St & 5 Ave", "totalDocks": 55, "statusValue": "In Service", "availableBikes": 8, "landMark": "", "statusKey": 1}, {"city": "", "latitude": 40.69089272, "stAddress1": "Henry St & Atlantic Ave", "availableDocks": 15, "testStation": false, "longitude": -73.99612349, "location": "", "lastCommunicationTime": "2015-06-08 04:25:22 PM", "id": 157, "altitude": "", "stAddress2": "", "postalCode": "", "stationName": "Henry St & Atlantic Ave", "totalDocks": 23, "statusValue": "In Service", "availableBikes": 8, "landMark": "", "statusKey": 1}, {"city": "", "latitude": 40.748238, "stAddress1": "E 37 St & Lexington Ave", "availableDocks": 21, "testStation": false, "longitude": -73.978311, "location": "", "lastCommunicationTime": "2015-06-08 04:25:02 PM", "id": 160, "altitude": "", "stAddress2": "", "postalCode": "", "stationName": "E 37 St & Lexington Ave", "totalDocks": 26, "statusValue": "In Service", "availableBikes": 5, "landMark": "", "statusKey": 1}, {"city": "", "latitude": 40.72917025, "stAddress1": "LaGuardia Pl & W 3 St", "availableDocks": 13, "testStation": false, "longitude": -73.99810231, "location": "", "lastCommunicationTime": "2015-06-08 04:24:51 PM", "id": 161, "altitude": "", "stAddress2": "", "postalCode": "", "stationName": "LaGuardia Pl & W 3 St", "totalDocks": 35, "statusValue": "In Service", "availableBikes": 21, "landMark": "", "statusKey": 1}, {"city": "", "latitude": 40.75323098, "stAddress1": "E 47 St & 2 Ave", "availableDocks": 20, "testStation": false, "longitude": -73.97032517, "location": "", "lastCommunicationTime": "2015-06-08 04:23:46 PM", "id": 164, "altitude": "", "stAddress2": "", "postalCode": "", "stationName": "E 47 St & 2 Ave", "totalDocks": 47, "statusValue": "In Service", "availableBikes": 25, "landMark": "", "statusKey": 1}, {"city": "", "latitude": 40.7489006, "stAddress1": "E 39 St & 3 Ave", "availableDocks": 30, "testStation": false, "longitude": -73.97604882, "location": "", "lastCommunicationTime": "2015-06-08 04:22:26 PM", "id": 167, "altitude": "", "stAddress2": "", "postalCode": "", "stationName": "E 39 St & 3 Ave", "totalDocks": 45, "statusValue": "In Service", "availableBikes": 12, "landMark": "", "statusKey": 1}, {"city": "", "latitude": 40.73971301, "stAddress1": "W 18 St & 6 Ave", "availableDocks": 2, "testStation": false, "longitude": -73.99456405, "location": "", "lastCommunicationTime": "2015-06-08 04:25:40 PM", "id": 168, "altitude": "", "stAddress2": "", "postalCode": "", "stationName": "W 18 St & 6 Ave", "totalDocks": 47, "statusValue": "In Service", "availableBikes": 43, "landMark": "", "statusKey": 1}, {"city": "", "latitude": 40.76064679, "stAddress1": "Broadway & W 49 St", "availableDocks": 50, "testStation": false, "longitude": -73.98442659, "location": "", "lastCommunicationTime": "2015-05-29 12:14:38 PM", "id": 173, "altitude": "", "stAddress2": "", "postalCode": "", "stationName": "Broadway & W 49 St", "totalDocks": 51, "statusValue": "Not In Service", "availableBikes": 0, "landMark": "", "statusKey": 3}, {"city": "", "latitude": 40.7381765, "stAddress1": "E 25 St & 1 Ave", "availableDocks": 26, "testStation": false, "longitude": -73.97738662, "location": "", "lastCommunicationTime": "2015-06-08 04:22:27 PM", "id": 174, "altitude": "", "stAddress2": "", "postalCode": "", "stationName": "E 25 St & 1 Ave", "totalDocks": 30, "statusValue": "In Service", "availableBikes": 1, "landMark": "", "statusKey": 1}, {"city": "", "latitude": 40.70905623, "stAddress1": "Liberty St & Broadway", "availableDocks": 10, "testStation": false, "longitude": -74.01043382, "location": "", "lastCommunicationTime": "2015-06-08 04:25:48 PM", "id": 195, "altitude": "", "stAddress2": "", "postalCode": "", "stationName": "Liberty St & Broadway", "totalDocks": 45, "statusValue": "In Service", "availableBikes": 26, "landMark": "", "statusKey": 1}, {"city": "", "latitude": 40.74334935, "stAddress1": "W 16 St & The High Line", "availableDocks": 3, "testStation": false, "longitude": -74.00681753, "location": "", "lastCommunicationTime": "2015-04-16 12:56:25 PM", "id": 212, "altitude": "", "stAddress2": "", "postalCode": "", "stationName": "W 16 St & The High Line", "totalDocks": 3, "statusValue": "Not In Service", "availableBikes": 0, "landMark": "", "statusKey": 3}, {"city": "", "latitude": 40.70037867, "stAddress1": "Columbia Heights & Cranberry St", "availableDocks": 18, "testStation": false, "longitude": -73.99548059, "location": "", "lastCommunicationTime": "2015-06-08 04:25:44 PM", "id": 216, "altitude": "", "stAddress2": "", "postalCode": "", "stationName": "Columbia Heights & Cranberry St", "totalDocks": 23, "statusValue": "In Service", "availableBikes": 5, "landMark": "", "statusKey": 1}, {"city": "", "latitude": 40.70277159, "stAddress1": "Old Fulton St", "availableDocks": 10, "testStation": false, "longitude": -73.99383605, "location": "", "lastCommunicationTime": "2015-06-08 04:23:06 PM", "id": 217, "altitude": "", "stAddress2": "", "postalCode": "", "stationName": "Old Fulton St", "totalDocks": 39, "statusValue": "In Service", "availableBikes": 29, "landMark": "", "statusKey": 1}, {"city": "", "latitude": 40.69028437, "stAddress1": "Gallatin Pl & Livingston St", "availableDocks": 20, "testStation": false, "longitude": -73.98707105, "location": "", "lastCommunicationTime": "2015-06-08 04:23:29 PM", "id": 218, "altitude": "", "stAddress2": "", "postalCode": "", "stationName": "Gallatin Pl & Livingston St", "totalDocks": 39, "statusValue": "In Service", "availableBikes": 18, "landMark": "", "statusKey": 1}, {"city": "", "latitude": 40.73781509, "stAddress1": "W 13 St & 7 Ave", "availableDocks": 26, "testStation": false, "longitude": -73.99994661, "location": "", "lastCommunicationTime": "2015-06-08 04:25:30 PM", "id": 223, "altitude": "", "stAddress2": "", "postalCode": "", "stationName": "W 13 St & 7 Ave", "totalDocks": 33, "statusValue": "In Service", "availableBikes": 7, "landMark": "", "statusKey": 1}, {"city": "", "latitude": 40.71146364, "stAddress1": "Spruce St & Nassau St", "availableDocks": 23, "testStation": false, "longitude": -74.00552427, "location": "", "lastCommunicationTime": "2015-06-08 04:24:22 PM", "id": 224, "altitude": "", "stAddress2": "", "postalCode": "", "stationName": "Spruce St & Nassau St", "totalDocks": 31, "statusValue": "In Service", "availableBikes": 5, "landMark": "", "statusKey": 1}, {"city": "", "latitude": 40.74195138, "stAddress1": "W 14 St & The High Line", "availableDocks": 18, "testStation": false, "longitude": -74.00803013, "location": "", "lastCommunicationTime": "2015-06-08 04:26:01 PM", "id": 225, "altitude": "", "stAddress2": "", "postalCode": "", "stationName": "W 14 St & The High Line", "totalDocks": 37, "statusValue": "In Service", "availableBikes": 15, "landMark": "", "statusKey": 1}, {"city": "", "latitude": 40.7546011026, "stAddress1": "E 48 St & 3 Ave", "availableDocks": 8, "testStation": false, "longitude": -73.971878855, "location": "", "lastCommunicationTime": "2015-06-08 04:25:53 PM", "id": 228, "altitude": "", "stAddress2": "", "postalCode": "", "stationName": "E 48 St & 3 Ave", "totalDocks": 55, "statusValue": "In Service", "availableBikes": 41, "landMark": "", "statusKey": 1}, {"city": "", "latitude": 40.72743423, "stAddress1": "Great Jones St", "availableDocks": 18, "testStation": false, "longitude": -73.99379025, "location": "", "lastCommunicationTime": "2015-05-08 12:15:33 PM", "id": 229, "altitude": "", "stAddress2": "", "postalCode": "", "stationName": "Great Jones St", "totalDocks": 18, "statusValue": "Not In Service", "availableBikes": 0, "landMark": "", "statusKey": 3}, {"city": "", "latitude": 40.69597683, "stAddress1": "Cadman Plaza E & Tillary St", "availableDocks": 2, "testStation": false, "longitude": -73.99014892, "location": "", "lastCommunicationTime": "2015-06-08 04:24:22 PM", "id": 232, "altitude": "", "stAddress2": "", "postalCode": "", "stationName": "Cadman Plaza E & Tillary St", "totalDocks": 23, "statusValue": "In Service", "availableBikes": 21, "landMark": "", "statusKey": 1}, {"city": "", "latitude": 40.694757013639, "stAddress1": "Cadman Plaza W & Pierrepont St", "availableDocks": 28, "testStation": false, "longitude": -73.990527391434, "location": "", "lastCommunicationTime": "2015-06-08 04:25:39 PM", "id": 233, "altitude": "", "stAddress2": "", "postalCode": "", "stationName": "Cadman Plaza W & Pierrepont St", "totalDocks": 38, "statusValue": "In Service", "availableBikes": 10, "landMark": "", "statusKey": 1}, {"city": "", "latitude": 40.7284186, "stAddress1": "St Marks Pl & 2 Ave", "availableDocks": 11, "testStation": false, "longitude": -73.98713956, "location": "", "lastCommunicationTime": "2015-06-08 04:26:18 PM", "id": 236, "altitude": "", "stAddress2": "", "postalCode": "", "stationName": "St Marks Pl & 2 Ave", "totalDocks": 39, "statusValue": "In Service", "availableBikes": 27, "landMark": "", "statusKey": 1}, {"city": "", "latitude": 40.73047309, "stAddress1": "E 11 St & 2 Ave", "availableDocks": 34, "testStation": false, "longitude": -73.98672378, "location": "", "lastCommunicationTime": "2015-06-08 04:23:02 PM", "id": 237, "altitude": "", "stAddress2": "", "postalCode": "", "stationName": "E 11 St & 2 Ave", "totalDocks": 39, "statusValue": "In Service", "availableBikes": 4, "landMark": "", "statusKey": 1}, {"city": "", "latitude": 40.7361967, "stAddress1": "Bank St & Washington St", "availableDocks": 21, "testStation": false, "longitude": -74.00859207, "location": "", "lastCommunicationTime": "2015-06-08 04:24:13 PM", "id": 238, "altitude": "", "stAddress2": "", "postalCode": "", "stationName": "Bank St & Washington St", "totalDocks": 31, "statusValue": "In Service", "availableBikes": 8, "landMark": "", "statusKey": 1}, {"city": "", "latitude": 40.69196566, "stAddress1": "Willoughby St & Fleet St", "availableDocks": 2, "testStation": false, "longitude": -73.9813018, "location": "", "lastCommunicationTime": "2015-06-08 04:25:55 PM", "id": 239, "altitude": "", "stAddress2": "", "postalCode": "", "stationName": "Willoughby St & Fleet St", "totalDocks": 31, "statusValue": "In Service", "availableBikes": 27, "landMark": "", "statusKey": 1}, {"city": "", "latitude": 40.68981035, "stAddress1": "DeKalb Ave & S Portland Ave", "availableDocks": 18, "testStation": false, "longitude": -73.97493121, "location": "", "lastCommunicationTime": "2015-06-08 04:24:16 PM", "id": 241, "altitude": "", "stAddress2": "", "postalCode": "", "stationName": "DeKalb Ave & S Portland Ave", "totalDocks": 23, "statusValue": "In Service", "availableBikes": 3, "landMark": "", "statusKey": 1}, {"city": "", "latitude": 40.69788349, "stAddress1": "Flushing Ave & Carlton Ave", "availableDocks": 13, "testStation": false, "longitude": -73.97350332, "location": "", "lastCommunicationTime": "2015-06-08 04:22:52 PM", "id": 242, "altitude": "", "stAddress2": "", "postalCode": "", "stationName": "Flushing Ave & Carlton Ave", "totalDocks": 23, "statusValue": "In Service", "availableBikes": 10, "landMark": "", "statusKey": 1}, {"city": "", "latitude": 40.688226, "stAddress1": "Fulton St & Rockwell Pl", "availableDocks": 14, "testStation": false, "longitude": -73.979382, "location": "", "lastCommunicationTime": "2015-06-08 04:22:52 PM", "id": 243, "altitude": "", "stAddress2": "", "postalCode": "", "stationName": "Fulton St & Rockwell Pl", "totalDocks": 31, "statusValue": "In Service", "availableBikes": 14, "landMark": "", "statusKey": 1}, {"city": "", "latitude": 40.69196035, "stAddress1": "Willoughby Ave & Hall St", "availableDocks": 30, "testStation": false, "longitude": -73.96536851, "location": "", "lastCommunicationTime": "2015-06-08 04:24:38 PM", "id": 244, "altitude": "", "stAddress2": "", "postalCode": "", "stationName": "Willoughby Ave & Hall St", "totalDocks": 31, "statusValue": "In Service", "availableBikes": 1, "landMark": "", "statusKey": 1}, {"city": "", "latitude": 40.69327018, "stAddress1": "Myrtle Ave & St Edwards St", "availableDocks": 21, "testStation": false, "longitude": -73.97703874, "location": "", "lastCommunicationTime": "2015-06-08 04:22:34 PM", "id": 245, "altitude": "", "stAddress2": "", "postalCode": "", "stationName": "Myrtle Ave & St Edwards St", "totalDocks": 23, "statusValue": "In Service", "availableBikes": 2, "landMark": "", "statusKey": 1}, {"city": "", "latitude": 40.73535398, "stAddress1": "Perry St & Bleecker St", "availableDocks": 17, "testStation": false, "longitude": -74.00483091, "location": "", "lastCommunicationTime": "2015-06-08 04:23:39 PM", "id": 247, "altitude": "", "stAddress2": "", "postalCode": "", "stationName": "Perry St & Bleecker St", "totalDocks": 20, "statusValue": "In Service", "availableBikes": 0, "landMark": "", "statusKey": 1}, {"city": "", "latitude": 40.72185379, "stAddress1": "Laight St & Hudson St", "availableDocks": 1, "testStation": false, "longitude": -74.00771779, "location": "", "lastCommunicationTime": "2015-06-08 04:22:49 PM", "id": 248, "altitude": "", "stAddress2": "", "postalCode": "", "stationName": "Laight St & Hudson St", "totalDocks": 23, "statusValue": "In Service", "availableBikes": 18, "landMark": "", "statusKey": 1}, {"city": "", "latitude": 40.71870987, "stAddress1": "Harrison St & Hudson St", "availableDocks": 3, "testStation": false, "longitude": -74.0090009, "location": "", "lastCommunicationTime": "2015-06-08 04:24:26 PM", "id": 249, "altitude": "", "stAddress2": "", "postalCode": "", "stationName": "Harrison St & Hudson St", "totalDocks": 27, "statusValue": "In Service", "availableBikes": 20, "landMark": "", "statusKey": 1}, {"city": "", "latitude": 40.72456089, "stAddress1": "Lafayette St & Jersey St", "availableDocks": 10, "testStation": false, "longitude": -73.99565293, "location": "", "lastCommunicationTime": "2015-06-08 04:24:47 PM", "id": 250, "altitude": "", "stAddress2": "", "postalCode": "", "stationName": "Lafayette St & Jersey St", "totalDocks": 40, "statusValue": "In Service", "availableBikes": 26, "landMark": "", "statusKey": 1}, {"city": "", "latitude": 40.72317958, "stAddress1": "Mott St & Prince St", "availableDocks": 5, "testStation": false, "longitude": -73.99480012, "location": "", "lastCommunicationTime": "2015-06-08 04:24:16 PM", "id": 251, "altitude": "", "stAddress2": "", "postalCode": "", "stationName": "Mott St & Prince St", "totalDocks": 27, "statusValue": "In Service", "availableBikes": 19, "landMark": "", "statusKey": 1}, {"city": "", "latitude": 40.73226398, "stAddress1": "MacDougal St & Washington Sq", "availableDocks": 26, "testStation": false, "longitude": -73.99852205, "location": "", "lastCommunicationTime": "2015-06-08 04:23:48 PM", "id": 252, "altitude": "", "stAddress2": "", "postalCode": "", "stationName": "MacDougal St & Washington Sq", "totalDocks": 33, "statusValue": "In Service", "availableBikes": 5, "landMark": "", "statusKey": 1}, {"city": "", "latitude": 40.73543934, "stAddress1": "W 13 St & 5 Ave", "availableDocks": 41, "testStation": false, "longitude": -73.99453948, "location": "", "lastCommunicationTime": "2015-06-08 04:24:59 PM", "id": 253, "altitude": "", "stAddress2": "", "postalCode": "", "stationName": "W 13 St & 5 Ave", "totalDocks": 55, "statusValue": "In Service", "availableBikes": 14, "landMark": "", "statusKey": 1}, {"city": "", "latitude": 40.73532427, "stAddress1": "W 11 St & 6 Ave", "availableDocks": 30, "testStation": false, "longitude": -73.99800419, "location": "", "lastCommunicationTime": "2015-06-08 04:26:18 PM", "id": 254, "altitude": "", "stAddress2": "", "postalCode": "", "stationName": "W 11 St & 6 Ave", "totalDocks": 31, "statusValue": "In Service", "availableBikes": 1, "landMark": "", "statusKey": 1}, {"city": "", "latitude": 40.71939226, "stAddress1": "Lispenard St & Broadway", "availableDocks": 4, "testStation": false, "longitude": -74.00247214, "location": "", "lastCommunicationTime": "2015-06-08 04:23:38 PM", "id": 257, "altitude": "", "stAddress2": "", "postalCode": "", "stationName": "Lispenard St & Broadway", "totalDocks": 39, "statusValue": "In Service", "availableBikes": 34, "landMark": "", "statusKey": 1}, {"city": "", "latitude": 40.68940747, "stAddress1": "DeKalb Ave & Vanderbilt Ave", "availableDocks": 20, "testStation": false, "longitude": -73.96885458, "location": "", "lastCommunicationTime": "2015-06-08 04:25:29 PM", "id": 258, "altitude": "", "stAddress2": "", "postalCode": "", "stationName": "DeKalb Ave & Vanderbilt Ave", "totalDocks": 23, "statusValue": "In Service", "availableBikes": 2, "landMark": "", "statusKey": 1}, {"city": "", "latitude": 40.70122128, "stAddress1": "South St & Whitehall St", "availableDocks": 5, "testStation": false, "longitude": -74.01234218, "location": "", "lastCommunicationTime": "2015-06-08 04:25:09 PM", "id": 259, "altitude": "", "stAddress2": "", "postalCode": "", "stationName": "South St & Whitehall St", "totalDocks": 39, "statusValue": "In Service", "availableBikes": 32, "landMark": "", "statusKey": 1}, {"city": "", "latitude": 40.70365182, "stAddress1": "Broad St & Bridge St", "availableDocks": 16, "testStation": false, "longitude": -74.01167797, "location": "", "lastCommunicationTime": "2015-06-08 04:23:36 PM", "id": 260, "altitude": "", "stAddress2": "", "postalCode": "", "stationName": "Broad St & Bridge St", "totalDocks": 35, "statusValue": "In Service", "availableBikes": 19, "landMark": "", "statusKey": 1}, {"city": "", "latitude": 40.69474881, "stAddress1": "Johnson St & Gold St", "availableDocks": 10, "testStation": false, "longitude": -73.98362464, "location": "", "lastCommunicationTime": "2015-06-08 04:25:57 PM", "id": 261, "altitude": "", "stAddress2": "", "postalCode": "", "stationName": "Johnson St & Gold St", "totalDocks": 27, "statusValue": "In Service", "availableBikes": 16, "landMark": "", "statusKey": 1}, {"city": "", "latitude": 40.6917823, "stAddress1": "Washington Park", "availableDocks": 19, "testStation": false, "longitude": -73.9737299, "location": "", "lastCommunicationTime": "2015-06-08 04:24:44 PM", "id": 262, "altitude": "", "stAddress2": "", "postalCode": "", "stationName": "Washington Park", "totalDocks": 24, "statusValue": "In Service", "availableBikes": 4, "landMark": "", "statusKey": 1}, {"city": "", "latitude": 40.71729, "stAddress1": "Elizabeth St & Hester St", "availableDocks": 30, "testStation": false, "longitude": -73.996375, "location": "", "lastCommunicationTime": "2015-06-08 04:22:58 PM", "id": 263, "altitude": "", "stAddress2": "", "postalCode": "", "stationName": "Elizabeth St & Hester St", "totalDocks": 31, "statusValue": "In Service", "availableBikes": 0, "landMark": "", "statusKey": 1}, {"city": "", "latitude": 40.70706456, "stAddress1": "Maiden Ln & Pearl St", "availableDocks": 1, "testStation": false, "longitude": -74.00731853, "location": "", "lastCommunicationTime": "2015-06-08 04:25:49 PM", "id": 264, "altitude": "", "stAddress2": "", "postalCode": "", "stationName": "Maiden Ln & Pearl St", "totalDocks": 27, "statusValue": "In Service", "availableBikes": 20, "landMark": "", "statusKey": 1}, {"city": "", "latitude": 40.72229346, "stAddress1": "Stanton St & Chrystie St", "availableDocks": 34, "testStation": false, "longitude": -73.99147535, "location": "", "lastCommunicationTime": "2015-06-08 04:22:54 PM", "id": 265, "altitude": "", "stAddress2": "", "postalCode": "", "stationName": "Stanton St & Chrystie St", "totalDocks": 35, "statusValue": "In Service", "availableBikes": 0, "landMark": "", "statusKey": 1}, {"city": "", "latitude": 40.72368361, "stAddress1": "Avenue D & E 8 St", "availableDocks": 21, "testStation": false, "longitude": -73.97574813, "location": "", "lastCommunicationTime": "2015-06-08 04:26:02 PM", "id": 266, "altitude": "", "stAddress2": "", "postalCode": "", "stationName": "Avenue D & E 8 St", "totalDocks": 24, "statusValue": "In Service", "availableBikes": 3, "landMark": "", "statusKey": 1}, {"city": "", "latitude": 40.75097711, "stAddress1": "Broadway & W 36 St", "availableDocks": 55, "testStation": false, "longitude": -73.98765428, "location": "", "lastCommunicationTime": "2015-06-08 04:24:47 PM", "id": 267, "altitude": "", "stAddress2": "", "postalCode": "", "stationName": "Broadway & W 36 St", "totalDocks": 57, "statusValue": "In Service", "availableBikes": 2, "landMark": "", "statusKey": 1}, {"city": "", "latitude": 40.71910537, "stAddress1": "Howard St & Centre St", "availableDocks": 1, "testStation": false, "longitude": -73.99973337, "location": "", "lastCommunicationTime": "2015-06-08 04:25:18 PM", "id": 268, "altitude": "", "stAddress2": "", "postalCode": "", "stationName": "Howard St & Centre St", "totalDocks": 27, "statusValue": "In Service", "availableBikes": 25, "landMark": "", "statusKey": 1}, {"city": "", "latitude": 40.69308257, "stAddress1": "Adelphi St & Myrtle Ave", "availableDocks": 22, "testStation": false, "longitude": -73.97178913, "location": "", "lastCommunicationTime": "2015-06-08 04:22:29 PM", "id": 270, "altitude": "", "stAddress2": "", "postalCode": "", "stationName": "Adelphi St & Myrtle Ave", "totalDocks": 23, "statusValue": "In Service", "availableBikes": 1, "landMark": "", "statusKey": 1}, {"city": "", "latitude": 40.68528172, "stAddress1": "Ashland Pl & Hanson Pl", "availableDocks": 24, "testStation": false, "longitude": -73.97805813, "location": "", "lastCommunicationTime": "2015-06-08 04:23:54 PM", "id": 271, "altitude": "", "stAddress2": "", "postalCode": "", "stationName": "Ashland Pl & Hanson Pl", "totalDocks": 31, "statusValue": "In Service", "availableBikes": 5, "landMark": "", "statusKey": 1}, {"city": "", "latitude": 40.68691865, "stAddress1": "Lafayette Ave & Fort Greene Pl", "availableDocks": 9, "testStation": false, "longitude": -73.976682, "location": "", "lastCommunicationTime": "2015-06-08 04:25:55 PM", "id": 274, "altitude": "", "stAddress2": "", "postalCode": "", "stationName": "Lafayette Ave & Fort Greene Pl", "totalDocks": 31, "statusValue": "In Service", "availableBikes": 20, "landMark": "", "statusKey": 1}, {"city": "", "latitude": 40.68650065, "stAddress1": "Washington Ave & Greene Ave", "availableDocks": 19, "testStation": false, "longitude": -73.96563307, "location": "", "lastCommunicationTime": "2015-06-08 04:23:54 PM", "id": 275, "altitude": "", "stAddress2": "", "postalCode": "", "stationName": "Washington Ave & Greene Ave", "totalDocks": 19, "statusValue": "In Service", "availableBikes": 0, "landMark": "", "statusKey": 1}, {"city": "", "latitude": 40.71748752, "stAddress1": "Duane St & Greenwich St", "availableDocks": 14, "testStation": false, "longitude": -74.0104554, "location": "", "lastCommunicationTime": "2015-06-08 04:23:12 PM", "id": 276, "altitude": "", "stAddress2": "", "postalCode": "", "stationName": "Duane St & Greenwich St", "totalDocks": 25, "statusValue": "In Service", "availableBikes": 11, "landMark": "", "statusKey": 1}, {"city": "", "latitude": 40.69766564, "stAddress1": "Concord St & Bridge St", "availableDocks": 12, "testStation": false, "longitude": -73.98476437, "location": "", "lastCommunicationTime": "2015-06-08 04:22:38 PM", "id": 278, "altitude": "", "stAddress2": "", "postalCode": "", "stationName": "Concord St & Bridge St", "totalDocks": 19, "statusValue": "In Service", "availableBikes": 7, "landMark": "", "statusKey": 1}, {"city": "", "latitude": 40.707873, "stAddress1": "Peck Slip & Front St", "availableDocks": 14, "testStation": false, "longitude": -74.00167, "location": "", "lastCommunicationTime": "2015-06-08 04:24:17 PM", "id": 279, "altitude": "", "stAddress2": "", "postalCode": "", "stationName": "Peck Slip & Front St", "totalDocks": 36, "statusValue": "In Service", "availableBikes": 15, "landMark": "", "statusKey": 1}, {"city": "", "latitude": 40.73331967, "stAddress1": "E 10 St & 5 Ave", "availableDocks": 26, "testStation": false, "longitude": -73.99510132, "location": "", "lastCommunicationTime": "2015-06-08 04:26:19 PM", "id": 280, "altitude": "", "stAddress2": "", "postalCode": "", "stationName": "E 10 St & 5 Ave", "totalDocks": 31, "statusValue": "In Service", "availableBikes": 3, "landMark": "", "statusKey": 1}, {"city": "", "latitude": 40.7643971, "stAddress1": "Grand Army Plaza & Central Park S", "availableDocks": 7, "testStation": false, "longitude": -73.97371465, "location": "", "lastCommunicationTime": "2015-06-08 04:26:08 PM", "id": 281, "altitude": "", "stAddress2": "", "postalCode": "", "stationName": "Grand Army Plaza & Central Park S", "totalDocks": 59, "statusValue": "In Service", "availableBikes": 37, "landMark": "", "statusKey": 1}, {"city": "", "latitude": 40.70827295, "stAddress1": "Kent Ave & S 11 St", "availableDocks": 15, "testStation": false, "longitude": -73.96834101, "location": "", "lastCommunicationTime": "2015-06-08 04:25:05 PM", "id": 282, "altitude": "", "stAddress2": "", "postalCode": "", "stationName": "Kent Ave & S 11 St", "totalDocks": 27, "statusValue": "In Service", "availableBikes": 12, "landMark": "", "statusKey": 1}, {"city": "", "latitude": 40.7390169121, "stAddress1": "Greenwich Ave & 8 Ave", "availableDocks": 34, "testStation": false, "longitude": -74.0026376103, "location": "", "lastCommunicationTime": "2015-06-08 04:26:15 PM", "id": 284, "altitude": "", "stAddress2": "", "postalCode": "", "stationName": "Greenwich Ave & 8 Ave", "totalDocks": 43, "statusValue": "In Service", "availableBikes": 6, "landMark": "", "statusKey": 1}, {"city": "", "latitude": 40.73454567, "stAddress1": "Broadway & E 14 St", "availableDocks": 4, "testStation": false, "longitude": -73.99074142, "location": "", "lastCommunicationTime": "2015-06-08 04:25:48 PM", "id": 285, "altitude": "", "stAddress2": "", "postalCode": "", "stationName": "Broadway & E 14 St", "totalDocks": 47, "statusValue": "In Service", "availableBikes": 42, "landMark": "", "statusKey": 1}, {"city": "", "latitude": 40.6845683, "stAddress1": "Monroe St & Classon Ave", "availableDocks": 10, "testStation": false, "longitude": -73.95881081, "location": "", "lastCommunicationTime": "2015-06-08 04:24:00 PM", "id": 289, "altitude": "", "stAddress2": "", "postalCode": "", "stationName": "Monroe St & Classon Ave", "totalDocks": 19, "statusValue": "In Service", "availableBikes": 9, "landMark": "", "statusKey": 1}, {"city": "", "latitude": 40.76020258, "stAddress1": "2 Ave & E 58 St", "availableDocks": 25, "testStation": false, "longitude": -73.96478473, "location": "", "lastCommunicationTime": "2015-06-08 04:23:14 PM", "id": 290, "altitude": "", "stAddress2": "", "postalCode": "", "stationName": "2 Ave & E 58 St", "totalDocks": 29, "statusValue": "In Service", "availableBikes": 2, "landMark": "", "statusKey": 1}, {"city": "", "latitude": 40.713126, "stAddress1": "Madison St & Montgomery St", "availableDocks": 17, "testStation": false, "longitude": -73.984844, "location": "", "lastCommunicationTime": "2015-06-08 04:23:04 PM", "id": 291, "altitude": "", "stAddress2": "", "postalCode": "", "stationName": "Madison St & Montgomery St", "totalDocks": 20, "statusValue": "In Service", "availableBikes": 2, "landMark": "", "statusKey": 1}, {"city": "", "latitude": 40.73028666, "stAddress1": "Lafayette St & E 8 St", "availableDocks": 0, "testStation": false, "longitude": -73.9907647, "location": "", "lastCommunicationTime": "2015-06-08 04:26:17 PM", "id": 293, "altitude": "", "stAddress2": "", "postalCode": "", "stationName": "Lafayette St & E 8 St", "totalDocks": 55, "statusValue": "In Service", "availableBikes": 54, "landMark": "", "statusKey": 1}, {"city": "", "latitude": 40.73049393, "stAddress1": "Washington Square E", "availableDocks": 11, "testStation": false, "longitude": -73.9957214, "location": "", "lastCommunicationTime": "2015-06-08 04:24:43 PM", "id": 294, "altitude": "", "stAddress2": "", "postalCode": "", "stationName": "Washington Square E", "totalDocks": 31, "statusValue": "In Service", "availableBikes": 18, "landMark": "", "statusKey": 1}, {"city": "", "latitude": 40.71406667, "stAddress1": "Pike St & E Broadway", "availableDocks": 21, "testStation": false, "longitude": -73.99293911, "location": "", "lastCommunicationTime": "2015-06-08 04:25:32 PM", "id": 295, "altitude": "", "stAddress2": "", "postalCode": "", "stationName": "Pike St & E Broadway", "totalDocks": 24, "statusValue": "In Service", "availableBikes": 1, "landMark": "", "statusKey": 1}, {"city": "", "latitude": 40.71413089, "stAddress1": "Division St & Bowery", "availableDocks": 31, "testStation": false, "longitude": -73.9970468, "location": "", "lastCommunicationTime": "2015-06-08 04:25:10 PM", "id": 296, "altitude": "", "stAddress2": "", "postalCode": "", "stationName": "Division St & Bowery", "totalDocks": 35, "statusValue": "In Service", "availableBikes": 4, "landMark": "", "statusKey": 1}, {"city": "", "latitude": 40.734232, "stAddress1": "E 15 St & 3 Ave", "availableDocks": 20, "testStation": false, "longitude": -73.986923, "location": "", "lastCommunicationTime": "2015-06-08 04:23:43 PM", "id": 297, "altitude": "", "stAddress2": "", "postalCode": "", "stationName": "E 15 St & 3 Ave", "totalDocks": 27, "statusValue": "In Service", "availableBikes": 6, "landMark": "", "statusKey": 1}, {"city": "", "latitude": 40.68683208, "stAddress1": "3 Ave & Schermerhorn St", "availableDocks": 16, "testStation": false, "longitude": -73.9796772, "location": "", "lastCommunicationTime": "2015-06-08 04:24:10 PM", "id": 298, "altitude": "", "stAddress2": "", "postalCode": "", "stationName": "3 Ave & Schermerhorn St", "totalDocks": 35, "statusValue": "In Service", "availableBikes": 18, "landMark": "", "statusKey": 1}, {"city": "", "latitude": 40.728145, "stAddress1": "Shevchenko Pl & E 7 St", "availableDocks": 51, "testStation": false, "longitude": -73.990214, "location": "", "lastCommunicationTime": "2015-06-08 04:25:39 PM", "id": 300, "altitude": "", "stAddress2": "", "postalCode": "", "stationName": "Shevchenko Pl & E 7 St", "totalDocks": 55, "statusValue": "In Service", "availableBikes": 3, "landMark": "", "statusKey": 1}, {"city": "", "latitude": 40.72217444, "stAddress1": "E 2 St & Avenue B", "availableDocks": 33, "testStation": false, "longitude": -73.98368779, "location": "", "lastCommunicationTime": "2015-06-08 04:24:39 PM", "id": 301, "altitude": "", "stAddress2": "", "postalCode": "", "stationName": "E 2 St & Avenue B", "totalDocks": 37, "statusValue": "In Service", "availableBikes": 1, "landMark": "", "statusKey": 1}, {"city": "", "latitude": 40.72082834, "stAddress1": "Avenue D & E 3 St", "availableDocks": 21, "testStation": false, "longitude": -73.97793172, "location": "", "lastCommunicationTime": "2015-06-08 04:25:06 PM", "id": 302, "altitude": "", "stAddress2": "", "postalCode": "", "stationName": "Avenue D & E 3 St", "totalDocks": 23, "statusValue": "In Service", "availableBikes": 1, "landMark": "", "statusKey": 1}, {"city": "", "latitude": 40.72362738, "stAddress1": "Mercer St & Spring St", "availableDocks": 1, "testStation": false, "longitude": -73.99949601, "location": "", "lastCommunicationTime": "2015-06-08 04:22:59 PM", "id": 303, "altitude": "", "stAddress2": "", "postalCode": "", "stationName": "Mercer St & Spring St", "totalDocks": 31, "statusValue": "In Service", "availableBikes": 28, "landMark": "", "statusKey": 1}, {"city": "", "latitude": 40.70463334, "stAddress1": "Broadway & Battery Pl", "availableDocks": 11, "testStation": false, "longitude": -74.01361706, "location": "", "lastCommunicationTime": "2015-06-08 04:25:58 PM", "id": 304, "altitude": "", "stAddress2": "", "postalCode": "", "stationName": "Broadway & Battery Pl", "totalDocks": 36, "statusValue": "In Service", "availableBikes": 24, "landMark": "", "statusKey": 1}, {"city": "", "latitude": 40.76095756, "stAddress1": "E 58 St & 3 Ave", "availableDocks": 7, "testStation": false, "longitude": -73.96724467, "location": "", "lastCommunicationTime": "2015-06-08 04:26:03 PM", "id": 305, "altitude": "", "stAddress2": "", "postalCode": "", "stationName": "E 58 St & 3 Ave", "totalDocks": 33, "statusValue": "In Service", "availableBikes": 23, "landMark": "", "statusKey": 1}, {"city": "", "latitude": 40.70823502, "stAddress1": "Cliff St & Fulton St", "availableDocks": 5, "testStation": false, "longitude": -74.00530063, "location": "", "lastCommunicationTime": "2015-06-08 04:25:46 PM", "id": 306, "altitude": "", "stAddress2": "", "postalCode": "", "stationName": "Cliff St & Fulton St", "totalDocks": 37, "statusValue": "In Service", "availableBikes": 31, "landMark": "", "statusKey": 1}, {"city": "", "latitude": 40.71427487, "stAddress1": "Canal St & Rutgers St", "availableDocks": 27, "testStation": false, "longitude": -73.98990025, "location": "", "lastCommunicationTime": "2015-06-08 04:23:49 PM", "id": 307, "altitude": "", "stAddress2": "", "postalCode": "", "stationName": "Canal St & Rutgers St", "totalDocks": 31, "statusValue": "In Service", "availableBikes": 2, "landMark": "", "statusKey": 1}, {"city": "", "latitude": 40.71307916, "stAddress1": "St James Pl & Oliver St", "availableDocks": 22, "testStation": false, "longitude": -73.99851193, "location": "", "lastCommunicationTime": "2015-06-08 04:25:38 PM", "id": 308, "altitude": "", "stAddress2": "", "postalCode": "", "stationName": "St James Pl & Oliver St", "totalDocks": 27, "statusValue": "In Service", "availableBikes": 4, "landMark": "", "statusKey": 1}, {"city": "", "latitude": 40.7149787, "stAddress1": "Murray St & West St", "availableDocks": 6, "testStation": false, "longitude": -74.013012, "location": "", "lastCommunicationTime": "2015-06-08 04:23:21 PM", "id": 309, "altitude": "", "stAddress2": "", "postalCode": "", "stationName": "Murray St & West St", "totalDocks": 41, "statusValue": "In Service", "availableBikes": 35, "landMark": "", "statusKey": 1}, {"city": "", "latitude": 40.68926942, "stAddress1": "State St & Smith St", "availableDocks": 30, "testStation": false, "longitude": -73.98912867, "location": "", "lastCommunicationTime": "2015-06-08 04:24:40 PM", "id": 310, "altitude": "", "stAddress2": "", "postalCode": "", "stationName": "State St & Smith St", "totalDocks": 36, "statusValue": "In Service", "availableBikes": 5, "landMark": "", "statusKey": 1}, {"city": "", "latitude": 40.7172274, "stAddress1": "Norfolk St & Broome St", "availableDocks": 27, "testStation": false, "longitude": -73.98802084, "location": "", "lastCommunicationTime": "2015-06-08 04:25:55 PM", "id": 311, "altitude": "", "stAddress2": "", "postalCode": "", "stationName": "Norfolk St & Broome St", "totalDocks": 31, "statusValue": "In Service", "availableBikes": 0, "landMark": "", "statusKey": 1}, {"city": "", "latitude": 40.722055, "stAddress1": "Allen St & E Houston St", "availableDocks": 29, "testStation": false, "longitude": -73.989111, "location": "", "lastCommunicationTime": "2015-06-08 04:24:12 PM", "id": 312, "altitude": "", "stAddress2": "", "postalCode": "", "stationName": "Allen St & E Houston St", "totalDocks": 31, "statusValue": "In Service", "availableBikes": 1, "landMark": "", "statusKey": 1}, {"city": "", "latitude": 40.69610226, "stAddress1": "Washington Ave & Park Ave", "availableDocks": 16, "testStation": false, "longitude": -73.96751037, "location": "", "lastCommunicationTime": "2015-06-08 04:26:20 PM", "id": 313, "altitude": "", "stAddress2": "", "postalCode": "", "stationName": "Washington Ave & Park Ave", "totalDocks": 23, "statusValue": "In Service", "availableBikes": 5, "landMark": "", "statusKey": 1}, {"city": "", "latitude": 40.69383, "stAddress1": "Cadman Plaza West & Montague St", "availableDocks": 25, "testStation": false, "longitude": -73.990539, "location": "", "lastCommunicationTime": "2015-06-08 04:26:20 PM", "id": 314, "altitude": "", "stAddress2": "", "postalCode": "", "stationName": "Cadman Plaza West & Montague St", "totalDocks": 39, "statusValue": "In Service", "availableBikes": 13, "landMark": "", "statusKey": 1}, {"city": "", "latitude": 40.70355377, "stAddress1": "South St & Gouverneur Ln", "availableDocks": 0, "testStation": false, "longitude": -74.00670227, "location": "", "lastCommunicationTime": "2015-06-08 04:26:01 PM", "id": 315, "altitude": "", "stAddress2": "", "postalCode": "", "stationName": "South St & Gouverneur Ln", "totalDocks": 29, "statusValue": "In Service", "availableBikes": 27, "landMark": "", "statusKey": 1}, {"city": "", "latitude": 40.70955958, "stAddress1": "Fulton St & William St", "availableDocks": 14, "testStation": false, "longitude": -74.00653609, "location": "", "lastCommunicationTime": "2015-06-08 04:25:30 PM", "id": 316, "altitude": "", "stAddress2": "", "postalCode": "", "stationName": "Fulton St & William St", "totalDocks": 43, "statusValue": "In Service", "availableBikes": 25, "landMark": "", "statusKey": 1}, {"city": "", "latitude": 40.72453734, "stAddress1": "E 6 St & Avenue B", "availableDocks": 23, "testStation": false, "longitude": -73.98185424, "location": "", "lastCommunicationTime": "2015-06-08 04:24:20 PM", "id": 317, "altitude": "", "stAddress2": "", "postalCode": "", "stationName": "E 6 St & Avenue B", "totalDocks": 27, "statusValue": "In Service", "availableBikes": 3, "landMark": "", "statusKey": 1}, {"city": "", "latitude": 40.75320159, "stAddress1": "E 43 St & Vanderbilt Ave", "availableDocks": 30, "testStation": false, "longitude": -73.9779874, "location": "", "lastCommunicationTime": "2015-05-13 02:31:43 PM", "id": 318, "altitude": "", "stAddress2": "", "postalCode": "", "stationName": "E 43 St & Vanderbilt Ave", "totalDocks": 31, "statusValue": "Not In Service", "availableBikes": 0, "landMark": "", "statusKey": 3}, {"city": "", "latitude": 40.717571, "stAddress1": "Leonard St & Church St", "availableDocks": 17, "testStation": false, "longitude": -74.005549, "location": "", "lastCommunicationTime": "2015-06-08 04:25:31 PM", "id": 320, "altitude": "", "stAddress2": "", "postalCode": "", "stationName": "Leonard St & Church St", "totalDocks": 39, "statusValue": "In Service", "availableBikes": 18, "landMark": "", "statusKey": 1}, {"city": "", "latitude": 40.69991755, "stAddress1": "Cadman Plaza E & Red Cross Pl", "availableDocks": 18, "testStation": false, "longitude": -73.98971773, "location": "", "lastCommunicationTime": "2015-06-08 04:26:13 PM", "id": 321, "altitude": "", "stAddress2": "", "postalCode": "", "stationName": "Cadman Plaza E & Red Cross Pl", "totalDocks": 27, "statusValue": "In Service", "availableBikes": 8, "landMark": "", "statusKey": 1}, {"city": "", "latitude": 40.696192, "stAddress1": "Clinton St & Tillary St", "availableDocks": 15, "testStation": false, "longitude": -73.991218, "location": "", "lastCommunicationTime": "2015-06-08 04:25:21 PM", "id": 322, "altitude": "", "stAddress2": "", "postalCode": "", "stationName": "Clinton St & Tillary St", "totalDocks": 31, "statusValue": "In Service", "availableBikes": 14, "landMark": "", "statusKey": 1}, {"city": "", "latitude": 40.69236178, "stAddress1": "Lawrence St & Willoughby St", "availableDocks": 11, "testStation": false, "longitude": -73.98631746, "location": "", "lastCommunicationTime": "2015-06-08 04:23:24 PM", "id": 323, "altitude": "", "stAddress2": "", "postalCode": "", "stationName": "Lawrence St & Willoughby St", "totalDocks": 39, "statusValue": "In Service", "availableBikes": 25, "landMark": "", "statusKey": 1}, {"city": "", "latitude": 40.689888, "stAddress1": "DeKalb Ave & Hudson Ave", "availableDocks": 0, "testStation": false, "longitude": -73.981013, "location": "", "lastCommunicationTime": "2015-06-08 04:23:45 PM", "id": 324, "altitude": "", "stAddress2": "", "postalCode": "", "stationName": "DeKalb Ave & Hudson Ave", "totalDocks": 51, "statusValue": "In Service", "availableBikes": 50, "landMark": "", "statusKey": 1}, {"city": "", "latitude": 40.73624527, "stAddress1": "E 19 St & 3 Ave", "availableDocks": 30, "testStation": false, "longitude": -73.98473765, "location": "", "lastCommunicationTime": "2015-06-08 04:25:06 PM", "id": 325, "altitude": "", "stAddress2": "", "postalCode": "", "stationName": "E 19 St & 3 Ave", "totalDocks": 35, "statusValue": "In Service", "availableBikes": 5, "landMark": "", "statusKey": 1}, {"city": "", "latitude": 40.72953837, "stAddress1": "E 11 St & 1 Ave", "availableDocks": 23, "testStation": false, "longitude": -73.98426726, "location": "", "lastCommunicationTime": "2015-06-08 04:22:44 PM", "id": 326, "altitude": "", "stAddress2": "", "postalCode": "", "stationName": "E 11 St & 1 Ave", "totalDocks": 27, "statusValue": "In Service", "availableBikes": 3, "landMark": "", "statusKey": 1}, {"city": "", "latitude": 40.7153379, "stAddress1": "Vesey Pl & River Terrace", "availableDocks": 7, "testStation": false, "longitude": -74.01658354, "location": "", "lastCommunicationTime": "2015-06-08 04:23:51 PM", "id": 327, "altitude": "", "stAddress2": "", "postalCode": "", "stationName": "Vesey Pl & River Terrace", "totalDocks": 39, "statusValue": "In Service", "availableBikes": 27, "landMark": "", "statusKey": 1}, {"city": "", "latitude": 40.72405549, "stAddress1": "Watts St & Greenwich St", "availableDocks": 5, "testStation": false, "longitude": -74.00965965, "location": "", "lastCommunicationTime": "2015-06-08 04:26:17 PM", "id": 328, "altitude": "", "stAddress2": "", "postalCode": "", "stationName": "Watts St & Greenwich St", "totalDocks": 23, "statusValue": "In Service", "availableBikes": 17, "landMark": "", "statusKey": 1}, {"city": "", "latitude": 40.72043411, "stAddress1": "Greenwich St & N Moore St", "availableDocks": 11, "testStation": false, "longitude": -74.01020609, "location": "", "lastCommunicationTime": "2015-06-08 04:26:21 PM", "id": 329, "altitude": "", "stAddress2": "", "postalCode": "", "stationName": "Greenwich St & N Moore St", "totalDocks": 31, "statusValue": "In Service", "availableBikes": 16, "landMark": "", "statusKey": 1}, {"city": "", "latitude": 40.71450451, "stAddress1": "Reade St & Broadway", "availableDocks": 15, "testStation": false, "longitude": -74.00562789, "location": "", "lastCommunicationTime": "2015-06-08 04:26:12 PM", "id": 330, "altitude": "", "stAddress2": "", "postalCode": "", "stationName": "Reade St & Broadway", "totalDocks": 39, "statusValue": "In Service", "availableBikes": 21, "landMark": "", "statusKey": 1}, {"city": "", "latitude": 40.71173107, "stAddress1": "Pike St & Monroe St", "availableDocks": 23, "testStation": false, "longitude": -73.99193043, "location": "", "lastCommunicationTime": "2015-06-08 04:24:50 PM", "id": 331, "altitude": "", "stAddress2": "", "postalCode": "", "stationName": "Pike St & Monroe St", "totalDocks": 27, "statusValue": "In Service", "availableBikes": 3, "landMark": "", "statusKey": 1}, {"city": "", "latitude": 40.71219906, "stAddress1": "Cherry St", "availableDocks": 15, "testStation": false, "longitude": -73.97948148, "location": "", "lastCommunicationTime": "2015-06-08 04:25:54 PM", "id": 332, "altitude": "", "stAddress2": "", "postalCode": "", "stationName": "Cherry St", "totalDocks": 24, "statusValue": "In Service", "availableBikes": 5, "landMark": "", "statusKey": 1}, {"city": "", "latitude": 40.74238787, "stAddress1": "W 20 St & 7 Ave", "availableDocks": 26, "testStation": false, "longitude": -73.99726235, "location": "", "lastCommunicationTime": "2015-06-08 04:25:55 PM", "id": 334, "altitude": "", "stAddress2": "", "postalCode": "", "stationName": "W 20 St & 7 Ave", "totalDocks": 31, "statusValue": "In Service", "availableBikes": 4, "landMark": "", "statusKey": 1}, {"city": "", "latitude": 40.72903917, "stAddress1": "Washington Pl & Broadway", "availableDocks": 14, "testStation": false, "longitude": -73.99404649, "location": "", "lastCommunicationTime": "2015-06-08 04:25:36 PM", "id": 335, "altitude": "", "stAddress2": "", "postalCode": "", "stationName": "Washington Pl & Broadway", "totalDocks": 27, "statusValue": "In Service", "availableBikes": 11, "landMark": "", "statusKey": 1}, {"city": "", "latitude": 40.73047747, "stAddress1": "Sullivan St & Washington Sq", "availableDocks": 27, "testStation": false, "longitude": -73.99906065, "location": "", "lastCommunicationTime": "2015-06-08 04:22:38 PM", "id": 336, "altitude": "", "stAddress2": "", "postalCode": "", "stationName": "Sullivan St & Washington Sq", "totalDocks": 36, "statusValue": "In Service", "availableBikes": 8, "landMark": "", "statusKey": 1}, {"city": "", "latitude": 40.7037992, "stAddress1": "Old Slip & Front St", "availableDocks": 1, "testStation": false, "longitude": -74.00838676, "location": "", "lastCommunicationTime": "2015-06-08 04:24:17 PM", "id": 337, "altitude": "", "stAddress2": "", "postalCode": "", "stationName": "Old Slip & Front St", "totalDocks": 37, "statusValue": "In Service", "availableBikes": 35, "landMark": "", "statusKey": 1}, {"city": "", "latitude": 40.72580614, "stAddress1": "Avenue D & E 12 St", "availableDocks": 20, "testStation": false, "longitude": -73.97422494, "location": "", "lastCommunicationTime": "2015-06-08 04:26:08 PM", "id": 339, "altitude": "", "stAddress2": "", "postalCode": "", "stationName": "Avenue D & E 12 St", "totalDocks": 24, "statusValue": "In Service", "availableBikes": 4, "landMark": "", "statusKey": 1}, {"city": "", "latitude": 40.71269042, "stAddress1": "Madison St & Clinton St", "availableDocks": 20, "testStation": false, "longitude": -73.98776323, "location": "", "lastCommunicationTime": "2015-06-08 04:22:59 PM", "id": 340, "altitude": "", "stAddress2": "", "postalCode": "", "stationName": "Madison St & Clinton St", "totalDocks": 27, "statusValue": "In Service", "availableBikes": 5, "landMark": "", "statusKey": 1}, {"city": "", "latitude": 40.71782143, "stAddress1": "Stanton St & Mangin St", "availableDocks": 18, "testStation": false, "longitude": -73.97628939, "location": "", "lastCommunicationTime": "2015-06-08 04:23:08 PM", "id": 341, "altitude": "", "stAddress2": "", "postalCode": "", "stationName": "Stanton St & Mangin St", "totalDocks": 19, "statusValue": "In Service", "availableBikes": 0, "landMark": "", "statusKey": 1}, {"city": "", "latitude": 40.71739973, "stAddress1": "Columbia St & Rivington St", "availableDocks": 25, "testStation": false, "longitude": -73.98016555, "location": "", "lastCommunicationTime": "2015-06-08 04:25:53 PM", "id": 342, "altitude": "", "stAddress2": "", "postalCode": "", "stationName": "Columbia St & Rivington St", "totalDocks": 29, "statusValue": "In Service", "availableBikes": 3, "landMark": "", "statusKey": 1}, {"city": "", "latitude": 40.69794, "stAddress1": "Clinton Ave & Flushing Ave", "availableDocks": 3, "testStation": false, "longitude": -73.96986848, "location": "", "lastCommunicationTime": "2015-06-08 04:22:51 PM", "id": 343, "altitude": "", "stAddress2": "", "postalCode": "", "stationName": "Clinton Ave & Flushing Ave", "totalDocks": 23, "statusValue": "In Service", "availableBikes": 19, "landMark": "", "statusKey": 1}, {"city": "", "latitude": 40.6851443, "stAddress1": "Monroe St & Bedford Ave", "availableDocks": 12, "testStation": false, "longitude": -73.95380904, "location": "", "lastCommunicationTime": "2015-06-08 04:24:25 PM", "id": 344, "altitude": "", "stAddress2": "", "postalCode": "", "stationName": "Monroe St & Bedford Ave", "totalDocks": 23, "statusValue": "In Service", "availableBikes": 9, "landMark": "", "statusKey": 1}, {"city": "", "latitude": 40.73649403, "stAddress1": "W 13 St & 6 Ave", "availableDocks": 31, "testStation": false, "longitude": -73.99704374, "location": "", "lastCommunicationTime": "2015-06-08 04:24:59 PM", "id": 345, "altitude": "", "stAddress2": "", "postalCode": "", "stationName": "W 13 St & 6 Ave", "totalDocks": 35, "statusValue": "In Service", "availableBikes": 4, "landMark": "", "statusKey": 1}, {"city": "", "latitude": 40.73652889, "stAddress1": "Bank St & Hudson St", "availableDocks": 23, "testStation": false, "longitude": -74.00618026, "location": "", "lastCommunicationTime": "2015-06-08 04:23:16 PM", "id": 346, "altitude": "", "stAddress2": "", "postalCode": "", "stationName": "Bank St & Hudson St", "totalDocks": 27, "statusValue": "In Service", "availableBikes": 1, "landMark": "", "statusKey": 1}, {"city": "", "latitude": 40.72873888, "stAddress1": "W Houston St & Hudson St", "availableDocks": 35, "testStation": false, "longitude": -74.00748842, "location": "", "lastCommunicationTime": "2015-05-01 12:50:21 PM", "id": 347, "altitude": "", "stAddress2": "", "postalCode": "", "stationName": "W Houston St & Hudson St", "totalDocks": 35, "statusValue": "Not In Service", "availableBikes": 0, "landMark": "", "statusKey": 3}, {"city": "", "latitude": 40.72490985, "stAddress1": "W Broadway & Spring St", "availableDocks": 13, "testStation": false, "longitude": -74.00154702, "location": "", "lastCommunicationTime": "2015-06-08 04:23:23 PM", "id": 348, "altitude": "", "stAddress2": "", "postalCode": "", "stationName": "W Broadway & Spring St", "totalDocks": 42, "statusValue": "In Service", "availableBikes": 26, "landMark": "", "statusKey": 1}, {"city": "", "latitude": 40.71850211, "stAddress1": "Rivington St & Ridge St", "availableDocks": 21, "testStation": false, "longitude": -73.98329859, "location": "", "lastCommunicationTime": "2015-06-08 04:25:22 PM", "id": 349, "altitude": "", "stAddress2": "", "postalCode": "", "stationName": "Rivington St & Ridge St", "totalDocks": 23, "statusValue": "In Service", "availableBikes": 0, "landMark": "", "statusKey": 1}, {"city": "", "latitude": 40.71559509, "stAddress1": "Clinton St & Grand St", "availableDocks": 26, "testStation": false, "longitude": -73.9870295, "location": "", "lastCommunicationTime": "2015-06-08 04:25:05 PM", "id": 350, "altitude": "", "stAddress2": "", "postalCode": "", "stationName": "Clinton St & Grand St", "totalDocks": 28, "statusValue": "In Service", "availableBikes": 1, "landMark": "", "statusKey": 1}, {"city": "", "latitude": 40.70530954, "stAddress1": "Front St & Maiden Ln", "availableDocks": 8, "testStation": false, "longitude": -74.00612572, "location": "", "lastCommunicationTime": "2015-06-08 04:25:05 PM", "id": 351, "altitude": "", "stAddress2": "", "postalCode": "", "stationName": "Front St & Maiden Ln", "totalDocks": 39, "statusValue": "In Service", "availableBikes": 31, "landMark": "", "statusKey": 1}, {"city": "", "latitude": 40.76340613, "stAddress1": "W 56 St & 6 Ave", "availableDocks": 12, "testStation": false, "longitude": -73.97722479, "location": "", "lastCommunicationTime": "2015-06-08 04:24:30 PM", "id": 352, "altitude": "", "stAddress2": "", "postalCode": "", "stationName": "W 56 St & 6 Ave", "totalDocks": 36, "statusValue": "In Service", "availableBikes": 17, "landMark": "", "statusKey": 1}, {"city": "", "latitude": 40.68539567, "stAddress1": "S Portland Ave & Hanson Pl", "availableDocks": 10, "testStation": false, "longitude": -73.97431458, "location": "", "lastCommunicationTime": "2015-06-08 04:25:14 PM", "id": 353, "altitude": "", "stAddress2": "", "postalCode": "", "stationName": "S Portland Ave & Hanson Pl", "totalDocks": 27, "statusValue": "In Service", "availableBikes": 17, "landMark": "", "statusKey": 1}, {"city": "", "latitude": 40.69363137, "stAddress1": "Emerson Pl & Myrtle Ave", "availableDocks": 11, "testStation": false, "longitude": -73.96223558, "location": "", "lastCommunicationTime": "2015-06-08 04:24:48 PM", "id": 354, "altitude": "", "stAddress2": "", "postalCode": "", "stationName": "Emerson Pl & Myrtle Ave", "totalDocks": 23, "statusValue": "In Service", "availableBikes": 11, "landMark": "", "statusKey": 1}, {"city": "", "latitude": 40.71602118, "stAddress1": "Bayard St & Baxter St", "availableDocks": 29, "testStation": false, "longitude": -73.99974372, "location": "", "lastCommunicationTime": "2015-06-08 04:25:39 PM", "id": 355, "altitude": "", "stAddress2": "", "postalCode": "", "stationName": "Bayard St & Baxter St", "totalDocks": 43, "statusValue": "In Service", "availableBikes": 12, "landMark": "", "statusKey": 1}, {"city": "", "latitude": 40.71622644, "stAddress1": "Bialystoker Pl & Delancey St", "availableDocks": 21, "testStation": false, "longitude": -73.98261206, "location": "", "lastCommunicationTime": "2015-06-08 04:24:49 PM", "id": 356, "altitude": "", "stAddress2": "", "postalCode": "", "stationName": "Bialystoker Pl & Delancey St", "totalDocks": 23, "statusValue": "In Service", "availableBikes": 0, "landMark": "", "statusKey": 1}, {"city": "", "latitude": 40.73261787, "stAddress1": "E 11 St & Broadway", "availableDocks": 26, "testStation": false, "longitude": -73.99158043, "location": "", "lastCommunicationTime": "2015-06-08 04:26:19 PM", "id": 357, "altitude": "", "stAddress2": "", "postalCode": "", "stationName": "E 11 St & Broadway", "totalDocks": 27, "statusValue": "In Service", "availableBikes": 1, "landMark": "", "statusKey": 1}, {"city": "", "latitude": 40.73291553, "stAddress1": "Christopher St & Greenwich St", "availableDocks": 19, "testStation": false, "longitude": -74.00711384, "location": "", "lastCommunicationTime": "2015-06-08 04:24:17 PM", "id": 358, "altitude": "", "stAddress2": "", "postalCode": "", "stationName": "Christopher St & Greenwich St", "totalDocks": 36, "statusValue": "In Service", "availableBikes": 12, "landMark": "", "statusKey": 1}, {"city": "", "latitude": 40.75510267, "stAddress1": "E 47 St & Park Ave", "availableDocks": 23, "testStation": false, "longitude": -73.97498696, "location": "", "lastCommunicationTime": "2015-06-08 04:25:59 PM", "id": 359, "altitude": "", "stAddress2": "", "postalCode": "", "stationName": "E 47 St & Park Ave", "totalDocks": 55, "statusValue": "In Service", "availableBikes": 32, "landMark": "", "statusKey": 1}, {"city": "", "latitude": 40.70717936, "stAddress1": "William St & Pine St", "availableDocks": 24, "testStation": false, "longitude": -74.00887308, "location": "", "lastCommunicationTime": "2015-06-08 04:25:07 PM", "id": 360, "altitude": "", "stAddress2": "", "postalCode": "", "stationName": "William St & Pine St", "totalDocks": 39, "statusValue": "In Service", "availableBikes": 9, "landMark": "", "statusKey": 1}, {"city": "", "latitude": 40.71605866, "stAddress1": "Allen St & Hester St", "availableDocks": 40, "testStation": false, "longitude": -73.99190759, "location": "", "lastCommunicationTime": "2015-06-08 04:25:19 PM", "id": 361, "altitude": "", "stAddress2": "", "postalCode": "", "stationName": "Allen St & Hester St", "totalDocks": 43, "statusValue": "In Service", "availableBikes": 1, "landMark": "", "statusKey": 1}, {"city": "", "latitude": 40.75172632, "stAddress1": "Broadway & W 37 St", "availableDocks": 54, "testStation": false, "longitude": -73.98753523, "location": "", "lastCommunicationTime": "2015-06-08 04:24:54 PM", "id": 362, "altitude": "", "stAddress2": "", "postalCode": "", "stationName": "Broadway & W 37 St", "totalDocks": 57, "statusValue": "In Service", "availableBikes": 1, "landMark": "", "statusKey": 1}, {"city": "", "latitude": 40.70834698, "stAddress1": "West Thames St", "availableDocks": 10, "testStation": false, "longitude": -74.01713445, "location": "", "lastCommunicationTime": "2015-06-08 04:22:40 PM", "id": 363, "altitude": "", "stAddress2": "", "postalCode": "", "stationName": "West Thames St", "totalDocks": 49, "statusValue": "In Service", "availableBikes": 35, "landMark": "", "statusKey": 1}, {"city": "", "latitude": 40.68900443, "stAddress1": "Lafayette Ave & Classon Ave", "availableDocks": 26, "testStation": false, "longitude": -73.96023854, "location": "", "lastCommunicationTime": "2015-06-08 04:25:38 PM", "id": 364, "altitude": "", "stAddress2": "", "postalCode": "", "stationName": "Lafayette Ave & Classon Ave", "totalDocks": 27, "statusValue": "In Service", "availableBikes": 1, "landMark": "", "statusKey": 1}, {"city": "", "latitude": 40.68223166, "stAddress1": "Fulton St & Grand Ave", "availableDocks": 11, "testStation": false, "longitude": -73.9614583, "location": "", "lastCommunicationTime": "2015-06-08 04:24:31 PM", "id": 365, "altitude": "", "stAddress2": "", "postalCode": "", "stationName": "Fulton St & Grand Ave", "totalDocks": 31, "statusValue": "In Service", "availableBikes": 20, "landMark": "", "statusKey": 1}, {"city": "", "latitude": 40.693261, "stAddress1": "Clinton Ave & Myrtle Ave", "availableDocks": 27, "testStation": false, "longitude": -73.968896, "location": "", "lastCommunicationTime": "2015-06-08 04:23:32 PM", "id": 366, "altitude": "", "stAddress2": "", "postalCode": "", "stationName": "Clinton Ave & Myrtle Ave", "totalDocks": 33, "statusValue": "In Service", "availableBikes": 6, "landMark": "", "statusKey": 1}, {"city": "", "latitude": 40.75828065, "stAddress1": "E 53 St & Lexington Ave", "availableDocks": 8, "testStation": false, "longitude": -73.97069431, "location": "", "lastCommunicationTime": "2015-06-08 04:25:21 PM", "id": 367, "altitude": "", "stAddress2": "", "postalCode": "", "stationName": "E 53 St & Lexington Ave", "totalDocks": 34, "statusValue": "In Service", "availableBikes": 25, "landMark": "", "statusKey": 1}, {"city": "", "latitude": 40.73038599, "stAddress1": "Carmine St & 6 Ave", "availableDocks": 17, "testStation": false, "longitude": -74.00214988, "location": "", "lastCommunicationTime": "2015-06-08 04:24:56 PM", "id": 368, "altitude": "", "stAddress2": "", "postalCode": "", "stationName": "Carmine St & 6 Ave", "totalDocks": 39, "statusValue": "In Service", "availableBikes": 19, "landMark": "", "statusKey": 1}, {"city": "", "latitude": 40.73224119, "stAddress1": "Washington Pl & 6 Ave", "availableDocks": 34, "testStation": false, "longitude": -74.00026394, "location": "", "lastCommunicationTime": "2015-06-08 04:26:04 PM", "id": 369, "altitude": "", "stAddress2": "", "postalCode": "", "stationName": "Washington Pl & 6 Ave", "totalDocks": 35, "statusValue": "In Service", "availableBikes": 1, "landMark": "", "statusKey": 1}, {"city": "", "latitude": 40.694528, "stAddress1": "Franklin Ave & Myrtle Ave", "availableDocks": 5, "testStation": false, "longitude": -73.958089, "location": "", "lastCommunicationTime": "2015-06-08 04:24:11 PM", "id": 372, "altitude": "", "stAddress2": "", "postalCode": "", "stationName": "Franklin Ave & Myrtle Ave", "totalDocks": 27, "statusValue": "In Service", "availableBikes": 22, "landMark": "", "statusKey": 1}, {"city": "", "latitude": 40.69331716, "stAddress1": "Willoughby Ave & Walworth St", "availableDocks": 10, "testStation": false, "longitude": -73.95381995, "location": "", "lastCommunicationTime": "2015-06-08 04:23:36 PM", "id": 373, "altitude": "", "stAddress2": "", "postalCode": "", "stationName": "Willoughby Ave & Walworth St", "totalDocks": 19, "statusValue": "In Service", "availableBikes": 8, "landMark": "", "statusKey": 1}, {"city": "", "latitude": 40.72679454, "stAddress1": "Mercer St & Bleecker St", "availableDocks": 4, "testStation": false, "longitude": -73.99695094, "location": "", "lastCommunicationTime": "2015-06-08 04:25:18 PM", "id": 375, "altitude": "", "stAddress2": "", "postalCode": "", "stationName": "Mercer St & Bleecker St", "totalDocks": 30, "statusValue": "In Service", "availableBikes": 18, "landMark": "", "statusKey": 1}, {"city": "", "latitude": 40.70862144, "stAddress1": "John St & William St", "availableDocks": 27, "testStation": false, "longitude": -74.00722156, "location": "", "lastCommunicationTime": "2015-06-08 04:23:18 PM", "id": 376, "altitude": "", "stAddress2": "", "postalCode": "", "stationName": "John St & William St", "totalDocks": 43, "statusValue": "In Service", "availableBikes": 10, "landMark": "", "statusKey": 1}, {"city": "", "latitude": 40.72243797, "stAddress1": "6 Ave & Canal St", "availableDocks": 7, "testStation": false, "longitude": -74.00566443, "location": "", "lastCommunicationTime": "2015-06-08 04:24:14 PM", "id": 377, "altitude": "", "stAddress2": "", "postalCode": "", "stationName": "6 Ave & Canal St", "totalDocks": 47, "statusValue": "In Service", "availableBikes": 35, "landMark": "", "statusKey": 1}, {"city": "", "latitude": 40.749156, "stAddress1": "W 31 St & 7 Ave", "availableDocks": 9, "testStation": false, "longitude": -73.9916, "location": "", "lastCommunicationTime": "2015-06-08 04:25:48 PM", "id": 379, "altitude": "", "stAddress2": "", "postalCode": "", "stationName": "W 31 St & 7 Ave", "totalDocks": 42, "statusValue": "In Service", "availableBikes": 28, "landMark": "", "statusKey": 1}, {"city": "", "latitude": 40.73401143, "stAddress1": "W 4 St & 7 Ave S", "availableDocks": 29, "testStation": false, "longitude": -74.00293877, "location": "", "lastCommunicationTime": "2015-06-08 04:23:49 PM", "id": 380, "altitude": "", "stAddress2": "", "postalCode": "", "stationName": "W 4 St & 7 Ave S", "totalDocks": 39, "statusValue": "In Service", "availableBikes": 9, "landMark": "", "statusKey": 1}, {"city": "", "latitude": 40.73492695, "stAddress1": "University Pl & E 14 St", "availableDocks": 0, "testStation": false, "longitude": -73.99200509, "location": "", "lastCommunicationTime": "2015-06-08 04:24:44 PM", "id": 382, "altitude": "", "stAddress2": "", "postalCode": "", "stationName": "University Pl & E 14 St", "totalDocks": 36, "statusValue": "In Service", "availableBikes": 31, "landMark": "", "statusKey": 1}, {"city": "", "latitude": 40.735238, "stAddress1": "Greenwich Ave & Charles St", "availableDocks": 36, "testStation": false, "longitude": -74.000271, "location": "", "lastCommunicationTime": "2015-06-08 04:25:51 PM", "id": 383, "altitude": "", "stAddress2": "", "postalCode": "", "stationName": "Greenwich Ave & Charles St", "totalDocks": 39, "statusValue": "In Service", "availableBikes": 2, "landMark": "", "statusKey": 1}, {"city": "", "latitude": 40.75797322, "stAddress1": "E 55 St & 2 Ave", "availableDocks": 20, "testStation": false, "longitude": -73.96603308, "location": "", "lastCommunicationTime": "2015-06-08 04:22:43 PM", "id": 385, "altitude": "", "stAddress2": "", "postalCode": "", "stationName": "E 55 St & 2 Ave", "totalDocks": 29, "statusValue": "In Service", "availableBikes": 7, "landMark": "", "statusKey": 1}, {"city": "", "latitude": 40.71494807, "stAddress1": "Centre St & Worth St", "availableDocks": 12, "testStation": false, "longitude": -74.00234482, "location": "", "lastCommunicationTime": "2015-06-08 04:24:48 PM", "id": 386, "altitude": "", "stAddress2": "", "postalCode": "", "stationName": "Centre St & Worth St", "totalDocks": 43, "statusValue": "In Service", "availableBikes": 30, "landMark": "", "statusKey": 1}, {"city": "", "latitude": 40.71273266, "stAddress1": "Centre St & Chambers St", "availableDocks": 36, "testStation": false, "longitude": -74.0046073, "location": "", "lastCommunicationTime": "2015-06-08 04:24:42 PM", "id": 387, "altitude": "", "stAddress2": "", "postalCode": "", "stationName": "Centre St & Chambers St", "totalDocks": 39, "statusValue": "In Service", "availableBikes": 0, "landMark": "", "statusKey": 1}, {"city": "", "latitude": 40.749717753, "stAddress1": "W 26 St & 10 Ave", "availableDocks": 20, "testStation": false, "longitude": -74.002950346, "location": "", "lastCommunicationTime": "2015-06-08 04:23:32 PM", "id": 388, "altitude": "", "stAddress2": "", "postalCode": "", "stationName": "W 26 St & 10 Ave", "totalDocks": 35, "statusValue": "In Service", "availableBikes": 15, "landMark": "", "statusKey": 1}, {"city": "", "latitude": 40.71044554, "stAddress1": "Broadway & Berry St", "availableDocks": 15, "testStation": false, "longitude": -73.96525063, "location": "", "lastCommunicationTime": "2015-06-08 04:24:55 PM", "id": 389, "altitude": "", "stAddress2": "", "postalCode": "", "stationName": "Broadway & Berry St", "totalDocks": 27, "statusValue": "In Service", "availableBikes": 12, "landMark": "", "statusKey": 1}, {"city": "", "latitude": 40.69221589, "stAddress1": "Duffield St & Willoughby St", "availableDocks": 12, "testStation": false, "longitude": -73.9842844, "location": "", "lastCommunicationTime": "2015-06-08 04:24:17 PM", "id": 390, "altitude": "", "stAddress2": "", "postalCode": "", "stationName": "Duffield St & Willoughby St", "totalDocks": 31, "statusValue": "In Service", "availableBikes": 19, "landMark": "", "statusKey": 1}, {"city": "", "latitude": 40.69760127, "stAddress1": "Clark St & Henry St", "availableDocks": 31, "testStation": false, "longitude": -73.99344559, "location": "", "lastCommunicationTime": "2015-06-08 04:24:34 PM", "id": 391, "altitude": "", "stAddress2": "", "postalCode": "", "stationName": "Clark St & Henry St", "totalDocks": 31, "statusValue": "In Service", "availableBikes": 0, "landMark": "", "statusKey": 1}, {"city": "", "latitude": 40.695065, "stAddress1": "Jay St & Tech Pl", "availableDocks": 13, "testStation": false, "longitude": -73.987167, "location": "", "lastCommunicationTime": "2015-06-08 04:25:16 PM", "id": 392, "altitude": "", "stAddress2": "", "postalCode": "", "stationName": "Jay St & Tech Pl", "totalDocks": 32, "statusValue": "In Service", "availableBikes": 19, "landMark": "", "statusKey": 1}, {"city": "", "latitude": 40.72299208, "stAddress1": "E 5 St & Avenue C", "availableDocks": 28, "testStation": false, "longitude": -73.97995466, "location": "", "lastCommunicationTime": "2015-06-08 04:25:22 PM", "id": 393, "altitude": "", "stAddress2": "", "postalCode": "", "stationName": "E 5 St & Avenue C", "totalDocks": 31, "statusValue": "In Service", "availableBikes": 2, "landMark": "", "statusKey": 1}, {"city": "", "latitude": 40.72521311, "stAddress1": "E 9 St & Avenue C", "availableDocks": 28, "testStation": false, "longitude": -73.97768752, "location": "", "lastCommunicationTime": "2015-06-08 04:24:08 PM", "id": 394, "altitude": "", "stAddress2": "", "postalCode": "", "stationName": "E 9 St & Avenue C", "totalDocks": 32, "statusValue": "In Service", "availableBikes": 3, "landMark": "", "statusKey": 1}, {"city": "", "latitude": 40.68807003, "stAddress1": "Bond St & Schermerhorn St", "availableDocks": 26, "testStation": false, "longitude": -73.98410637, "location": "", "lastCommunicationTime": "2015-06-08 04:23:57 PM", "id": 395, "altitude": "", "stAddress2": "", "postalCode": "", "stationName": "Bond St & Schermerhorn St", "totalDocks": 30, "statusValue": "In Service", "availableBikes": 3, "landMark": "", "statusKey": 1}, {"city": "", "latitude": 40.680342423, "stAddress1": "Lefferts Pl & Franklin Ave", "availableDocks": 19, "testStation": false, "longitude": -73.9557689392, "location": "", "lastCommunicationTime": "2015-06-08 04:24:54 PM", "id": 396, "altitude": "", "stAddress2": "", "postalCode": "", "stationName": "Lefferts Pl & Franklin Ave", "totalDocks": 25, "statusValue": "In Service", "availableBikes": 6, "landMark": "", "statusKey": 1}, {"city": "", "latitude": 40.68415748, "stAddress1": "Fulton St & Clermont Ave", "availableDocks": 27, "testStation": false, "longitude": -73.96922273, "location": "", "lastCommunicationTime": "2015-06-08 04:22:39 PM", "id": 397, "altitude": "", "stAddress2": "", "postalCode": "", "stationName": "Fulton St & Clermont Ave", "totalDocks": 27, "statusValue": "In Service", "availableBikes": 0, "landMark": "", "statusKey": 1}, {"city": "", "latitude": 40.69165183, "stAddress1": "Atlantic Ave & Furman St", "availableDocks": 18, "testStation": false, "longitude": -73.9999786, "location": "", "lastCommunicationTime": "2015-06-08 04:23:39 PM", "id": 398, "altitude": "", "stAddress2": "", "postalCode": "", "stationName": "Atlantic Ave & Furman St", "totalDocks": 31, "statusValue": "In Service", "availableBikes": 12, "landMark": "", "statusKey": 1}, {"city": "", "latitude": 40.68851534, "stAddress1": "Lafayette Ave & St James Pl", "availableDocks": 25, "testStation": false, "longitude": -73.9647628, "location": "", "lastCommunicationTime": "2015-06-08 04:23:31 PM", "id": 399, "altitude": "", "stAddress2": "", "postalCode": "", "stationName": "Lafayette Ave & St James Pl", "totalDocks": 27, "statusValue": "In Service", "availableBikes": 2, "landMark": "", "statusKey": 1}, {"city": "", "latitude": 40.71926081, "stAddress1": "Pitt St & Stanton St", "availableDocks": 14, "testStation": false, "longitude": -73.98178024, "location": "", "lastCommunicationTime": "2015-06-08 04:26:16 PM", "id": 400, "altitude": "", "stAddress2": "", "postalCode": "", "stationName": "Pitt St & Stanton St", "totalDocks": 15, "statusValue": "In Service", "availableBikes": 1, "landMark": "", "statusKey": 1}, {"city": "", "latitude": 40.72019576, "stAddress1": "Allen St & Rivington St", "availableDocks": 33, "testStation": false, "longitude": -73.98997825, "location": "", "lastCommunicationTime": "2015-06-08 04:24:19 PM", "id": 401, "altitude": "", "stAddress2": "", "postalCode": "", "stationName": "Allen St & Rivington St", "totalDocks": 42, "statusValue": "In Service", "availableBikes": 4, "landMark": "", "statusKey": 1}, {"city": "", "latitude": 40.7403432, "stAddress1": "Broadway & E 22 St", "availableDocks": 16, "testStation": false, "longitude": -73.98955109, "location": "", "lastCommunicationTime": "2015-06-08 04:26:02 PM", "id": 402, "altitude": "", "stAddress2": "", "postalCode": "", "stationName": "Broadway & E 22 St", "totalDocks": 42, "statusValue": "In Service", "availableBikes": 25, "landMark": "", "statusKey": 1}, {"city": "", "latitude": 40.72502876, "stAddress1": "E 2 St & 2 Ave", "availableDocks": 27, "testStation": false, "longitude": -73.99069656, "location": "", "lastCommunicationTime": "2015-06-08 04:26:16 PM", "id": 403, "altitude": "", "stAddress2": "", "postalCode": "", "stationName": "E 2 St & 2 Ave", "totalDocks": 31, "statusValue": "In Service", "availableBikes": 4, "landMark": "", "statusKey": 1}, {"city": "", "latitude": 40.7405826, "stAddress1": "9 Ave & W 14 St", "availableDocks": 8, "testStation": false, "longitude": -74.00550867, "location": "", "lastCommunicationTime": "2015-06-08 04:26:13 PM", "id": 404, "altitude": "", "stAddress2": "", "postalCode": "", "stationName": "9 Ave & W 14 St", "totalDocks": 39, "statusValue": "In Service", "availableBikes": 30, "landMark": "", "statusKey": 1}, {"city": "", "latitude": 40.739323, "stAddress1": "Washington St & Gansevoort St", "availableDocks": 12, "testStation": false, "longitude": -74.008119, "location": "", "lastCommunicationTime": "2015-06-08 04:25:55 PM", "id": 405, "altitude": "", "stAddress2": "", "postalCode": "", "stationName": "Washington St & Gansevoort St", "totalDocks": 40, "statusValue": "In Service", "availableBikes": 26, "landMark": "", "statusKey": 1}, {"city": "", "latitude": 40.69512845, "stAddress1": "Hicks St & Montague St", "availableDocks": 24, "testStation": false, "longitude": -73.99595065, "location": "", "lastCommunicationTime": "2015-06-08 04:25:34 PM", "id": 406, "altitude": "", "stAddress2": "", "postalCode": "", "stationName": "Hicks St & Montague St", "totalDocks": 34, "statusValue": "In Service", "availableBikes": 9, "landMark": "", "statusKey": 1}, {"city": "", "latitude": 40.700469, "stAddress1": "Henry St & Poplar St", "availableDocks": 38, "testStation": false, "longitude": -73.991454, "location": "", "lastCommunicationTime": "2015-06-08 04:25:12 PM", "id": 407, "altitude": "", "stAddress2": "", "postalCode": "", "stationName": "Henry St & Poplar St", "totalDocks": 43, "statusValue": "In Service", "availableBikes": 5, "landMark": "", "statusKey": 1}, {"city": "", "latitude": 40.71076228, "stAddress1": "Market St & Cherry St", "availableDocks": 20, "testStation": false, "longitude": -73.99400398, "location": "", "lastCommunicationTime": "2015-06-08 04:25:47 PM", "id": 408, "altitude": "", "stAddress2": "", "postalCode": "", "stationName": "Market St & Cherry St", "totalDocks": 23, "statusValue": "In Service", "availableBikes": 2, "landMark": "", "statusKey": 1}, {"city": "", "latitude": 40.6906495, "stAddress1": "DeKalb Ave & Skillman St", "availableDocks": 14, "testStation": false, "longitude": -73.95643107, "location": "", "lastCommunicationTime": "2015-06-08 04:23:01 PM", "id": 409, "altitude": "", "stAddress2": "", "postalCode": "", "stationName": "DeKalb Ave & Skillman St", "totalDocks": 19, "statusValue": "In Service", "availableBikes": 5, "landMark": "", "statusKey": 1}, {"city": "", "latitude": 40.72066442, "stAddress1": "Suffolk St & Stanton St", "availableDocks": 33, "testStation": false, "longitude": -73.98517977, "location": "", "lastCommunicationTime": "2015-06-08 04:24:58 PM", "id": 410, "altitude": "", "stAddress2": "", "postalCode": "", "stationName": "Suffolk St & Stanton St", "totalDocks": 35, "statusValue": "In Service", "availableBikes": 2, "landMark": "", "statusKey": 1}, {"city": "", "latitude": 40.72228087, "stAddress1": "E 6 St & Avenue D", "availableDocks": 19, "testStation": false, "longitude": -73.97668709, "location": "", "lastCommunicationTime": "2015-06-08 04:26:21 PM", "id": 411, "altitude": "", "stAddress2": "", "postalCode": "", "stationName": "E 6 St & Avenue D", "totalDocks": 23, "statusValue": "In Service", "availableBikes": 2, "landMark": "", "statusKey": 1}, {"city": "", "latitude": 40.7158155, "stAddress1": "Forsyth St & Canal St", "availableDocks": 11, "testStation": false, "longitude": -73.99422366, "location": "", "lastCommunicationTime": "2015-06-08 04:24:20 PM", "id": 412, "altitude": "", "stAddress2": "", "postalCode": "", "stationName": "Forsyth St & Canal St", "totalDocks": 29, "statusValue": "In Service", "availableBikes": 13, "landMark": "", "statusKey": 1}, {"city": "", "latitude": 40.70281858, "stAddress1": "Pearl St & Anchorage Pl", "availableDocks": 3, "testStation": false, "longitude": -73.98765762, "location": "", "lastCommunicationTime": "2015-06-08 04:23:05 PM", "id": 414, "altitude": "", "stAddress2": "", "postalCode": "", "stationName": "Pearl St & Anchorage Pl", "totalDocks": 24, "statusValue": "In Service", "availableBikes": 20, "landMark": "", "statusKey": 1}, {"city": "", "latitude": 40.7047177, "stAddress1": "Pearl St & Hanover Square", "availableDocks": 37, "testStation": false, "longitude": -74.00926027, "location": "", "lastCommunicationTime": "2015-06-08 04:26:23 PM", "id": 415, "altitude": "", "stAddress2": "", "postalCode": "", "stationName": "Pearl St & Hanover Square", "totalDocks": 42, "statusValue": "In Service", "availableBikes": 3, "landMark": "", "statusKey": 1}, {"city": "", "latitude": 40.68753406, "stAddress1": "Cumberland St & Lafayette Ave", "availableDocks": 23, "testStation": false, "longitude": -73.97265183, "location": "", "lastCommunicationTime": "2015-06-08 04:23:02 PM", "id": 416, "altitude": "", "stAddress2": "", "postalCode": "", "stationName": "Cumberland St & Lafayette Ave", "totalDocks": 31, "statusValue": "In Service", "availableBikes": 8, "landMark": "", "statusKey": 1}, {"city": "", "latitude": 40.71291224, "stAddress1": "Barclay St & Church St", "availableDocks": 0, "testStation": false, "longitude": -74.01020234, "location": "", "lastCommunicationTime": "2015-06-08 04:24:40 PM", "id": 417, "altitude": "", "stAddress2": "", "postalCode": "", "stationName": "Barclay St & Church St", "totalDocks": 23, "statusValue": "In Service", "availableBikes": 17, "landMark": "", "statusKey": 1}, {"city": "", "latitude": 40.70224, "stAddress1": "Front St & Gold St", "availableDocks": 1, "testStation": false, "longitude": -73.982578, "location": "", "lastCommunicationTime": "2015-06-08 04:22:27 PM", "id": 418, "altitude": "", "stAddress2": "", "postalCode": "", "stationName": "Front St & Gold St", "totalDocks": 23, "statusValue": "In Service", "availableBikes": 19, "landMark": "", "statusKey": 1}, {"city": "", "latitude": 40.69580705, "stAddress1": "Carlton Ave & Park Ave", "availableDocks": 18, "testStation": false, "longitude": -73.97355569, "location": "", "lastCommunicationTime": "2015-06-08 04:22:37 PM", "id": 419, "altitude": "", "stAddress2": "", "postalCode": "", "stationName": "Carlton Ave & Park Ave", "totalDocks": 23, "statusValue": "In Service", "availableBikes": 5, "landMark": "", "statusKey": 1}, {"city": "", "latitude": 40.68764484, "stAddress1": "Clermont Ave & Lafayette Ave", "availableDocks": 15, "testStation": false, "longitude": -73.96968902, "location": "", "lastCommunicationTime": "2015-06-08 04:25:17 PM", "id": 420, "altitude": "", "stAddress2": "", "postalCode": "", "stationName": "Clermont Ave & Lafayette Ave", "totalDocks": 23, "statusValue": "In Service", "availableBikes": 7, "landMark": "", "statusKey": 1}, {"city": "", "latitude": 40.69573398, "stAddress1": "Clermont Ave & Park Ave", "availableDocks": 13, "testStation": false, "longitude": -73.97129668, "location": "", "lastCommunicationTime": "2015-06-08 04:25:30 PM", "id": 421, "altitude": "", "stAddress2": "", "postalCode": "", "stationName": "Clermont Ave & Park Ave", "totalDocks": 19, "statusValue": "In Service", "availableBikes": 6, "landMark": "", "statusKey": 1}, {"city": "", "latitude": 40.770513, "stAddress1": "W 59 St & 10 Ave", "availableDocks": 55, "testStation": false, "longitude": -73.988038, "location": "", "lastCommunicationTime": "2015-06-08 04:25:44 PM", "id": 422, "altitude": "", "stAddress2": "", "postalCode": "", "stationName": "W 59 St & 10 Ave", "totalDocks": 55, "statusValue": "In Service", "availableBikes": 0, "landMark": "", "statusKey": 1}, {"city": "", "latitude": 40.76584941, "stAddress1": "W 54 St & 9 Ave", "availableDocks": 20, "testStation": false, "longitude": -73.98690506, "location": "", "lastCommunicationTime": "2015-06-08 04:25:29 PM", "id": 423, "altitude": "", "stAddress2": "", "postalCode": "", "stationName": "W 54 St & 9 Ave", "totalDocks": 39, "statusValue": "In Service", "availableBikes": 19, "landMark": "", "statusKey": 1}, {"city": "", "latitude": 40.71754834, "stAddress1": "West St & Chambers St", "availableDocks": 3, "testStation": false, "longitude": -74.01322069, "location": "", "lastCommunicationTime": "2015-06-08 04:25:46 PM", "id": 426, "altitude": "", "stAddress2": "", "postalCode": "", "stationName": "West St & Chambers St", "totalDocks": 31, "statusValue": "In Service", "availableBikes": 26, "landMark": "", "statusKey": 1}, {"city": "", "latitude": 40.701907, "stAddress1": "Bus Slip & State St", "availableDocks": 8, "testStation": false, "longitude": -74.013942, "location": "", "lastCommunicationTime": "2015-06-08 04:25:56 PM", "id": 427, "altitude": "", "stAddress2": "", "postalCode": "", "stationName": "Bus Slip & State St", "totalDocks": 47, "statusValue": "In Service", "availableBikes": 33, "landMark": "", "statusKey": 1}, {"city": "", "latitude": 40.72467721, "stAddress1": "E 3 St & 1 Ave", "availableDocks": 26, "testStation": false, "longitude": -73.98783413, "location": "", "lastCommunicationTime": "2015-06-08 04:22:35 PM", "id": 428, "altitude": "", "stAddress2": "", "postalCode": "", "stationName": "E 3 St & 1 Ave", "totalDocks": 31, "statusValue": "In Service", "availableBikes": 2, "landMark": "", "statusKey": 1}, {"city": "", "latitude": 40.7014851, "stAddress1": "York St & Jay St", "availableDocks": 0, "testStation": false, "longitude": -73.98656928, "location": "", "lastCommunicationTime": "2015-06-08 04:24:40 PM", "id": 430, "altitude": "", "stAddress2": "", "postalCode": "", "stationName": "York St & Jay St", "totalDocks": 27, "statusValue": "In Service", "availableBikes": 24, "landMark": "", "statusKey": 1}, {"city": "", "latitude": 40.68864636, "stAddress1": "Hanover Pl & Livingston St", "availableDocks": 7, "testStation": false, "longitude": -73.98263429, "location": "", "lastCommunicationTime": "2015-06-08 04:26:09 PM", "id": 431, "altitude": "", "stAddress2": "", "postalCode": "", "stationName": "Hanover Pl & Livingston St", "totalDocks": 30, "statusValue": "In Service", "availableBikes": 23, "landMark": "", "statusKey": 1}, {"city": "", "latitude": 40.72621788, "stAddress1": "E 7 St & Avenue A", "availableDocks": 23, "testStation": false, "longitude": -73.98379855, "location": "", "lastCommunicationTime": "2015-06-08 04:25:34 PM", "id": 432, "altitude": "", "stAddress2": "", "postalCode": "", "stationName": "E 7 St & Avenue A", "totalDocks": 31, "statusValue": "In Service", "availableBikes": 8, "landMark": "", "statusKey": 1}, {"city": "", "latitude": 40.72955361, "stAddress1": "E 13 St & Avenue A", "availableDocks": 38, "testStation": false, "longitude": -73.98057249, "location": "", "lastCommunicationTime": "2015-06-08 04:23:13 PM", "id": 433, "altitude": "", "stAddress2": "", "postalCode": "", "stationName": "E 13 St & Avenue A", "totalDocks": 39, "statusValue": "In Service", "availableBikes": 0, "landMark": "", "statusKey": 1}, {"city": "", "latitude": 40.74317449, "stAddress1": "9 Ave & W 18 St", "availableDocks": 9, "testStation": false, "longitude": -74.00366443, "location": "", "lastCommunicationTime": "2015-06-08 04:25:04 PM", "id": 434, "altitude": "", "stAddress2": "", "postalCode": "", "stationName": "9 Ave & W 18 St", "totalDocks": 27, "statusValue": "In Service", "availableBikes": 17, "landMark": "", "statusKey": 1}, {"city": "", "latitude": 40.74173969, "stAddress1": "W 21 St & 6 Ave", "availableDocks": 20, "testStation": false, "longitude": -73.99415556, "location": "", "lastCommunicationTime": "2015-06-08 04:23:13 PM", "id": 435, "altitude": "", "stAddress2": "", "postalCode": "", "stationName": "W 21 St & 6 Ave", "totalDocks": 47, "statusValue": "In Service", "availableBikes": 26, "landMark": "", "statusKey": 1}, {"city": "", "latitude": 40.68216564, "stAddress1": "Hancock St & Bedford Ave", "availableDocks": 20, "testStation": false, "longitude": -73.95399026, "location": "", "lastCommunicationTime": "2015-06-08 04:26:19 PM", "id": 436, "altitude": "", "stAddress2": "", "postalCode": "", "stationName": "Hancock St & Bedford Ave", "totalDocks": 27, "statusValue": "In Service", "availableBikes": 7, "landMark": "", "statusKey": 1}, {"city": "", "latitude": 40.6809833854, "stAddress1": "Macon St & Nostrand Ave", "availableDocks": 16, "testStation": false, "longitude": -73.9500479759, "location": "", "lastCommunicationTime": "2015-06-08 04:24:03 PM", "id": 437, "altitude": "", "stAddress2": "", "postalCode": "", "stationName": "Macon St & Nostrand Ave", "totalDocks": 24, "statusValue": "In Service", "availableBikes": 7, "landMark": "", "statusKey": 1}, {"city": "", "latitude": 40.72779126, "stAddress1": "St Marks Pl & 1 Ave", "availableDocks": 27, "testStation": false, "longitude": -73.98564945, "location": "", "lastCommunicationTime": "2015-06-08 04:25:32 PM", "id": 438, "altitude": "", "stAddress2": "", "postalCode": "", "stationName": "St Marks Pl & 1 Ave", "totalDocks": 27, "statusValue": "In Service", "availableBikes": 0, "landMark": "", "statusKey": 1}, {"city": "", "latitude": 40.7262807, "stAddress1": "E 4 St & 2 Ave", "availableDocks": 37, "testStation": false, "longitude": -73.98978041, "location": "", "lastCommunicationTime": "2015-06-08 04:24:57 PM", "id": 439, "altitude": "", "stAddress2": "", "postalCode": "", "stationName": "E 4 St & 2 Ave", "totalDocks": 39, "statusValue": "In Service", "availableBikes": 2, "landMark": "", "statusKey": 1}, {"city": "", "latitude": 40.75255434, "stAddress1": "E 45 St & 3 Ave", "availableDocks": 9, "testStation": false, "longitude": -73.97282625, "location": "", "lastCommunicationTime": "2015-06-08 04:26:18 PM", "id": 440, "altitude": "", "stAddress2": "", "postalCode": "", "stationName": "E 45 St & 3 Ave", "totalDocks": 32, "statusValue": "In Service", "availableBikes": 21, "landMark": "", "statusKey": 1}, {"city": "", "latitude": 40.756014, "stAddress1": "E 52 St & 2 Ave", "availableDocks": 26, "testStation": false, "longitude": -73.967416, "location": "", "lastCommunicationTime": "2015-06-08 04:24:17 PM", "id": 441, "altitude": "", "stAddress2": "", "postalCode": "", "stationName": "E 52 St & 2 Ave", "totalDocks": 35, "statusValue": "In Service", "availableBikes": 9, "landMark": "", "statusKey": 1}, {"city": "", "latitude": 40.746647, "stAddress1": "W 27 St & 7 Ave", "availableDocks": 40, "testStation": false, "longitude": -73.993915, "location": "", "lastCommunicationTime": "2015-06-08 04:25:38 PM", "id": 442, "altitude": "", "stAddress2": "", "postalCode": "", "stationName": "W 27 St & 7 Ave", "totalDocks": 51, "statusValue": "In Service", "availableBikes": 10, "landMark": "", "statusKey": 1}, {"city": "", "latitude": 40.70853074, "stAddress1": "Bedford Ave & S 9th St", "availableDocks": 14, "testStation": false, "longitude": -73.96408963, "location": "", "lastCommunicationTime": "2015-06-08 04:25:26 PM", "id": 443, "altitude": "", "stAddress2": "", "postalCode": "", "stationName": "Bedford Ave & S 9th St", "totalDocks": 23, "statusValue": "In Service", "availableBikes": 9, "landMark": "", "statusKey": 1}, {"city": "", "latitude": 40.7423543, "stAddress1": "Broadway & W 24 St", "availableDocks": 27, "testStation": false, "longitude": -73.98915076, "location": "", "lastCommunicationTime": "2015-06-08 04:25:43 PM", "id": 444, "altitude": "", "stAddress2": "", "postalCode": "", "stationName": "Broadway & W 24 St", "totalDocks": 52, "statusValue": "In Service", "availableBikes": 22, "landMark": "", "statusKey": 1}, {"city": "", "latitude": 40.72740794, "stAddress1": "E 10 St & Avenue A", "availableDocks": 32, "testStation": false, "longitude": -73.98142006, "location": "", "lastCommunicationTime": "2015-06-08 04:25:26 PM", "id": 445, "altitude": "", "stAddress2": "", "postalCode": "", "stationName": "E 10 St & Avenue A", "totalDocks": 42, "statusValue": "In Service", "availableBikes": 10, "landMark": "", "statusKey": 1}, {"city": "", "latitude": 40.74487634, "stAddress1": "W 24 St & 7 Ave", "availableDocks": 36, "testStation": false, "longitude": -73.99529885, "location": "", "lastCommunicationTime": "2015-06-08 04:25:06 PM", "id": 446, "altitude": "", "stAddress2": "", "postalCode": "", "stationName": "W 24 St & 7 Ave", "totalDocks": 39, "statusValue": "In Service", "availableBikes": 2, "landMark": "", "statusKey": 1}, {"city": "", "latitude": 40.76370739, "stAddress1": "8 Ave & W 52 St", "availableDocks": 8, "testStation": false, "longitude": -73.9851615, "location": "", "lastCommunicationTime": "2015-06-08 04:22:51 PM", "id": 447, "altitude": "", "stAddress2": "", "postalCode": "", "stationName": "8 Ave & W 52 St", "totalDocks": 31, "statusValue": "In Service", "availableBikes": 18, "landMark": "", "statusKey": 1}, {"city": "", "latitude": 40.75660359, "stAddress1": "W 37 St & 10 Ave", "availableDocks": 27, "testStation": false, "longitude": -73.9979009, "location": "", "lastCommunicationTime": "2015-06-08 04:24:52 PM", "id": 448, "altitude": "", "stAddress2": "", "postalCode": "", "stationName": "W 37 St & 10 Ave", "totalDocks": 31, "statusValue": "In Service", "availableBikes": 4, "landMark": "", "statusKey": 1}, {"city": "", "latitude": 40.76461837, "stAddress1": "W 52 St & 9 Ave", "availableDocks": 29, "testStation": false, "longitude": -73.98789473, "location": "", "lastCommunicationTime": "2015-06-08 04:23:49 PM", "id": 449, "altitude": "", "stAddress2": "", "postalCode": "", "stationName": "W 52 St & 9 Ave", "totalDocks": 31, "statusValue": "In Service", "availableBikes": 1, "landMark": "", "statusKey": 1}, {"city": "", "latitude": 40.76227205, "stAddress1": "W 49 St & 8 Ave", "availableDocks": 57, "testStation": false, "longitude": -73.98788205, "location": "", "lastCommunicationTime": "2015-05-21 12:30:44 PM", "id": 450, "altitude": "", "stAddress2": "", "postalCode": "", "stationName": "W 49 St & 8 Ave", "totalDocks": 59, "statusValue": "Not In Service", "availableBikes": 0, "landMark": "", "statusKey": 3}, {"city": "", "latitude": 40.74475148, "stAddress1": "W 22 St & 8 Ave", "availableDocks": 33, "testStation": false, "longitude": -73.99915362, "location": "", "lastCommunicationTime": "2015-06-08 04:24:21 PM", "id": 453, "altitude": "", "stAddress2": "", "postalCode": "", "stationName": "W 22 St & 8 Ave", "totalDocks": 39, "statusValue": "In Service", "availableBikes": 5, "landMark": "", "statusKey": 1}, {"city": "", "latitude": 40.75455731, "stAddress1": "E 51 St & 1 Ave", "availableDocks": 29, "testStation": false, "longitude": -73.96592976, "location": "", "lastCommunicationTime": "2015-06-08 04:26:22 PM", "id": 454, "altitude": "", "stAddress2": "", "postalCode": "", "stationName": "E 51 St & 1 Ave", "totalDocks": 35, "statusValue": "In Service", "availableBikes": 5, "landMark": "", "statusKey": 1}, {"city": "", "latitude": 40.75001986, "stAddress1": "1 Ave & E 44 St", "availableDocks": 9, "testStation": false, "longitude": -73.96905301, "location": "", "lastCommunicationTime": "2015-06-08 04:23:47 PM", "id": 455, "altitude": "", "stAddress2": "", "postalCode": "", "stationName": "1 Ave & E 44 St", "totalDocks": 39, "statusValue": "In Service", "availableBikes": 27, "landMark": "", "statusKey": 1}, {"city": "", "latitude": 40.7597108, "stAddress1": "E 53 St & Madison Ave", "availableDocks": 8, "testStation": false, "longitude": -73.97402311, "location": "", "lastCommunicationTime": "2015-06-08 04:24:13 PM", "id": 456, "altitude": "", "stAddress2": "", "postalCode": "", "stationName": "E 53 St & Madison Ave", "totalDocks": 35, "statusValue": "In Service", "availableBikes": 26, "landMark": "", "statusKey": 1}, {"city": "", "latitude": 40.76695317, "stAddress1": "Broadway & W 58 St", "availableDocks": 21, "testStation": false, "longitude": -73.98169333, "location": "", "lastCommunicationTime": "2015-06-08 04:25:34 PM", "id": 457, "altitude": "", "stAddress2": "", "postalCode": "", "stationName": "Broadway & W 58 St", "totalDocks": 39, "statusValue": "In Service", "availableBikes": 16, "landMark": "", "statusKey": 1}, {"city": "", "latitude": 40.751396, "stAddress1": "11 Ave & W 27 St", "availableDocks": 26, "testStation": false, "longitude": -74.005226, "location": "", "lastCommunicationTime": "2015-06-08 04:25:44 PM", "id": 458, "altitude": "", "stAddress2": "", "postalCode": "", "stationName": "11 Ave & W 27 St", "totalDocks": 31, "statusValue": "In Service", "availableBikes": 4, "landMark": "", "statusKey": 1}, {"city": "", "latitude": 40.746745, "stAddress1": "W 20 St & 11 Ave", "availableDocks": 7, "testStation": false, "longitude": -74.007756, "location": "", "lastCommunicationTime": "2015-06-08 04:24:40 PM", "id": 459, "altitude": "", "stAddress2": "", "postalCode": "", "stationName": "W 20 St & 11 Ave", "totalDocks": 49, "statusValue": "In Service", "availableBikes": 37, "landMark": "", "statusKey": 1}, {"city": "", "latitude": 40.71285887, "stAddress1": "S 4 St & Wythe Ave", "availableDocks": 21, "testStation": false, "longitude": -73.96590294, "location": "", "lastCommunicationTime": "2015-06-08 04:23:44 PM", "id": 460, "altitude": "", "stAddress2": "", "postalCode": "", "stationName": "S 4 St & Wythe Ave", "totalDocks": 23, "statusValue": "In Service", "availableBikes": 2, "landMark": "", "statusKey": 1}, {"city": "", "latitude": 40.73587678, "stAddress1": "E 20 St & 2 Ave", "availableDocks": 29, "testStation": false, "longitude": -73.98205027, "location": "", "lastCommunicationTime": "2015-06-08 04:25:15 PM", "id": 461, "altitude": "", "stAddress2": "", "postalCode": "", "stationName": "E 20 St & 2 Ave", "totalDocks": 39, "statusValue": "In Service", "availableBikes": 9, "landMark": "", "statusKey": 1}, {"city": "", "latitude": 40.74691959, "stAddress1": "W 22 St & 10 Ave", "availableDocks": 17, "testStation": false, "longitude": -74.00451887, "location": "", "lastCommunicationTime": "2015-06-08 04:26:11 PM", "id": 462, "altitude": "", "stAddress2": "", "postalCode": "", "stationName": "W 22 St & 10 Ave", "totalDocks": 47, "statusValue": "In Service", "availableBikes": 29, "landMark": "", "statusKey": 1}, {"city": "", "latitude": 40.74206539, "stAddress1": "9 Ave & W 16 St", "availableDocks": 7, "testStation": false, "longitude": -74.00443172, "location": "", "lastCommunicationTime": "2015-06-08 04:24:55 PM", "id": 463, "altitude": "", "stAddress2": "", "postalCode": "", "stationName": "9 Ave & W 16 St", "totalDocks": 25, "statusValue": "In Service", "availableBikes": 18, "landMark": "", "statusKey": 1}, {"city": "", "latitude": 40.75934501, "stAddress1": "E 56 St & 3 Ave", "availableDocks": 5, "testStation": false, "longitude": -73.96759673, "location": "", "lastCommunicationTime": "2015-06-08 04:23:31 PM", "id": 464, "altitude": "", "stAddress2": "", "postalCode": "", "stationName": "E 56 St & 3 Ave", "totalDocks": 59, "statusValue": "In Service", "availableBikes": 47, "landMark": "", "statusKey": 1}, {"city": "", "latitude": 40.75513557, "stAddress1": "Broadway & W 41 St", "availableDocks": 33, "testStation": false, "longitude": -73.98658032, "location": "", "lastCommunicationTime": "2015-06-08 04:25:33 PM", "id": 465, "altitude": "", "stAddress2": "", "postalCode": "", "stationName": "Broadway & W 41 St", "totalDocks": 39, "statusValue": "In Service", "availableBikes": 6, "landMark": "", "statusKey": 1},